City_ID,City,Lat,Lon,Temp,Humidity,Cloudiness,Wind Speed,Country,Date
0,Donaghadee,54.6333,-5.5333,11.89,86,80,0.89,GB,2023-10-03 23:08:45
1,Howrah,22.5892,88.3103,26.0,94,100,4.12,IN,2023-10-03 23:08:46
2,Cannonvale,-20.2833,148.7,24.66,73,27,2.23,AU,2023-10-03 23:08:46
3,Ilulissat,69.2167,-51.1,-1.99,59,17,0.0,GL,2023-10-03 23:08:46
4,Blackmans Bay,-43.0167,147.3167,11.49,69,100,2.38,AU,2023-10-03 23:08:46
5,Margaret River,-33.95,115.0667,13.42,69,96,1.61,AU,2023-10-03 23:06:52
6,Grand Falls-Windsor,48.9332,-55.6649,6.95,92,100,3.13,CA,2023-10-03 23:08:46
7,Waitangi,-43.9535,-176.5597,11.01,75,92,2.68,NZ,2023-10-03 23:08:46
8,Constanța,44.1833,28.65,11.38,67,3,3.61,RO,2023-10-03 23:08:11
9,Knoxville,35.9606,-83.9207,25.68,52,0,2.06,US,2023-10-03 23:04:00
10,Fada N'gourma,12.0622,0.3578,24.75,83,100,4.06,BF,2023-10-03 23:08:46
11,Puerto Natales,-51.7236,-72.4875,5.48,88,34,3.01,CL,2023-10-03 23:08:47
12,Whitehorse,60.7161,-135.0538,2.95,60,95,4.02,CA,2023-10-03 23:08:38
13,Stanley,54.868,-1.6985,10.02,86,20,3.6,GB,2023-10-03 23:08:47
14,St. John's,47.5649,-52.7093,14.17,81,100,4.63,CA,2023-10-03 23:04:22
15,Adamstown,-25.066,-130.1015,20.4,75,81,8.36,PN,2023-10-03 23:06:21
16,Hadibu,12.65,54.0333,26.35,81,2,0.99,YE,2023-10-03 23:08:47
17,Udachny,66.4167,112.4,-3.64,85,100,7.44,RU,2023-10-03 23:08:47
18,Tromsø,69.6496,18.957,3.01,87,75,2.06,NO,2023-10-03 23:08:01
19,Hermanus,-34.4187,19.2345,14.57,91,89,4.42,ZA,2023-10-03 23:08:47
20,Quellón,-43.1167,-73.6167,8.46,82,85,0.6,CL,2023-10-03 23:08:47
21,Kapuskasing,49.4169,-82.4331,22.14,67,35,3.42,CA,2023-10-03 23:08:48
22,Basi,26.8333,76.0333,24.19,27,0,1.28,IN,2023-10-03 23:08:48
23,Banchory,57.0517,-2.4882,10.41,81,76,4.44,GB,2023-10-03 23:08:48
24,Yeniseysk,58.4497,92.1703,8.3,84,100,4.02,RU,2023-10-03 23:08:48
25,Wailua Homesteads,22.0669,-159.378,28.07,73,40,4.63,US,2023-10-03 23:08:48
26,Holualoa,19.6228,-155.9522,26.43,70,75,4.63,US,2023-10-03 23:08:48
27,George Town,5.4112,100.3354,25.76,94,20,0.0,MY,2023-10-03 23:08:48
28,Muisne,0.6,-80.0333,24.38,78,97,4.77,EC,2023-10-03 23:08:48
29,Port-aux-Français,-49.35,70.2167,4.43,93,100,20.98,TF,2023-10-03 23:08:48
30,Vila Franca do Campo,37.7167,-25.4333,23.82,99,17,4.34,PT,2023-10-03 23:08:49
31,Kingston,17.997,-76.7936,28.05,81,75,4.12,JM,2023-10-03 23:06:36
32,Invercargill,-46.4,168.35,17.79,53,93,4.92,NZ,2023-10-03 23:07:40
33,Albany,42.6001,-73.9662,20.67,84,0,1.81,US,2023-10-03 23:08:49
34,Grytviken,-54.2811,-36.5092,0.86,75,100,1.67,GS,2023-10-03 23:08:49
35,Nova Sintra,14.8667,-24.7167,23.49,78,5,1.78,CV,2023-10-03 23:08:49
36,Beroroha,-21.6667,45.1667,19.44,59,0,3.26,MG,2023-10-03 23:07:21
37,Aykhal,66.0,111.5,-4.41,95,100,4.92,RU,2023-10-03 23:08:49
38,Ushuaia,-54.8,-68.3,2.67,95,90,2.79,AR,2023-10-03 23:08:49
39,As Sulayyil,20.4607,45.5779,26.14,19,0,1.75,SA,2023-10-03 23:08:49
40,Chisec,15.8167,-90.2833,31.13,85,68,1.05,GT,2023-10-03 23:05:38
41,Sīwah,29.2041,25.5195,24.71,49,97,3.37,EG,2023-10-03 23:08:49
42,Bethel,41.3712,-73.414,20.59,82,0,0.0,US,2023-10-03 23:08:50
43,Arar,30.9753,41.0381,23.01,38,40,3.09,SA,2023-10-03 23:08:50
44,Cologne,50.9333,6.95,13.08,77,0,4.12,DE,2023-10-03 23:08:50
45,College,64.8569,-147.8028,0.33,93,100,2.06,US,2023-10-03 23:06:19
46,Gaspé,48.8334,-64.4819,9.5,91,90,1.7,CA,2023-10-03 23:08:50
47,Polyarny,69.1989,33.4478,3.42,81,100,1.25,RU,2023-10-03 23:08:50
48,Bereeda,11.8704,51.0579,27.49,71,4,2.99,SO,2023-10-03 23:08:50
49,Ojinaga,29.5667,-104.4167,34.55,27,0,2.06,MX,2023-10-03 23:08:17
50,Kristiansund,63.1115,7.732,9.36,87,100,4.12,NO,2023-10-03 23:08:50
51,Nizao,18.25,-70.2,30.04,78,72,1.82,DO,2023-10-03 23:08:50
52,Lincoln City,44.9582,-124.0179,15.76,90,39,4.47,US,2023-10-03 23:08:51
53,Ribeira Grande,38.5167,-28.7,21.54,92,91,4.92,PT,2023-10-03 23:08:51
54,Yuzhno-Kurilsk,44.0306,145.8556,14.1,73,100,0.92,RU,2023-10-03 23:08:51
55,Pariaman,-0.619,100.12,24.71,88,100,2.46,ID,2023-10-03 23:08:51
56,Iqaluit,63.7506,-68.5145,0.39,82,97,7.15,CA,2023-10-03 23:08:51
57,Castillos,-34.1667,-53.8333,15.77,93,100,4.11,UY,2023-10-03 23:08:51
58,Atamanovka,51.93,113.63,-0.94,87,12,1.68,RU,2023-10-03 23:08:51
59,Dakhla,23.6848,-15.958,22.02,77,4,5.24,EH,2023-10-03 23:08:51
60,Eydhafushi,5.1033,73.0708,26.81,83,100,6.89,MV,2023-10-03 23:08:51
61,Morondava,-20.2833,44.2833,24.9,73,10,4.16,MG,2023-10-03 23:08:52
62,Hawaiian Paradise Park,19.5933,-154.9731,27.38,75,0,6.17,US,2023-10-03 23:08:52
63,Bilibino,68.0546,166.4372,-11.14,93,77,1.3,RU,2023-10-03 23:08:52
64,Barakani,-12.1356,44.4317,25.43,78,50,2.58,KM,2023-10-03 23:08:52
65,São Paulo de Olivença,-3.3783,-68.8725,31.62,40,57,1.63,BR,2023-10-03 23:08:52
66,Muang Không,14.1167,105.85,23.46,99,100,1.2,LA,2023-10-03 23:08:52
67,Port Elizabeth,-33.918,25.5701,17.4,86,34,4.02,ZA,2023-10-03 23:08:52
68,Morant Bay,17.8815,-76.4093,25.39,83,84,2.04,JM,2023-10-03 23:08:52
69,Anadyr,64.75,177.4833,1.67,64,20,6.0,RU,2023-10-03 23:08:15
70,Klaksvík,62.2266,-6.589,7.51,78,89,6.03,FO,2023-10-03 23:08:52
71,George Town,5.4112,100.3354,25.76,94,20,0.0,MY,2023-10-03 23:08:09
72,Point Pedro,9.8167,80.2333,27.07,84,58,9.99,LK,2023-10-03 23:08:53
73,Alo,7.4178,6.7371,23.87,96,100,1.01,NG,2023-10-03 23:08:53
74,Vorgashor,67.5833,63.95,-0.13,92,83,3.43,RU,2023-10-03 23:08:53
75,Papatowai,-46.5619,169.4708,17.18,41,99,5.47,NZ,2023-10-03 23:08:53
76,Tari,12.4086,4.4914,25.07,71,79,3.02,NG,2023-10-03 23:08:53
77,Tralee,52.2704,-9.7026,11.81,91,89,3.7,IE,2023-10-03 23:08:53
78,Yellowknife,62.456,-114.3525,9.12,93,52,2.24,CA,2023-10-03 23:08:53
79,Matoury,4.8483,-52.3317,27.98,83,20,2.06,GF,2023-10-03 23:08:53
80,Edinburgh of the Seven Seas,-37.0676,-12.3116,10.29,66,92,6.3,SH,2023-10-03 23:08:53
81,Klyuchi,52.2667,79.1667,5.23,54,0,2.59,RU,2023-10-03 23:08:53
82,Punta Arenas,-53.15,-70.9167,8.06,66,20,4.63,CL,2023-10-03 23:08:53
83,Melekeok Village,7.4957,134.6367,24.31,94,100,2.57,PW,2023-10-03 23:08:54
84,Kenai,60.5544,-151.2583,8.1,40,0,3.6,US,2023-10-03 23:04:10
85,Shevchenko,48.5,35.0,12.99,51,4,1.5,UA,2023-10-03 23:08:54
86,La Passe,45.5549,-0.8967,14.13,77,57,3.65,FR,2023-10-03 23:08:54
87,West Island,-12.1568,96.8225,23.99,73,100,7.72,CC,2023-10-03 23:08:54
88,Mikuni,36.2171,136.1519,20.01,81,81,0.72,JP,2023-10-03 23:08:54
89,La Ronge,55.1001,-105.2842,13.23,58,36,0.46,CA,2023-10-03 23:08:54
90,Magong,23.5654,119.5863,26.35,87,70,16.98,TW,2023-10-03 23:08:54
91,Port Kembla,-34.4667,150.9,21.13,49,100,5.86,AU,2023-10-03 23:08:54
92,Xalapa,19.5333,-96.9167,20.76,91,84,1.17,MX,2023-10-03 23:07:08
93,Myitkyina,25.3833,97.4,23.33,100,68,0.42,MM,2023-10-03 23:08:17
94,Östersund,63.1792,14.6357,4.25,100,1,2.57,SE,2023-10-03 23:08:55
95,San Borja,-14.8167,-66.85,33.36,43,67,3.14,BO,2023-10-03 23:08:55
96,Port Mathurin,-19.6833,63.4167,23.04,79,1,2.65,MU,2023-10-03 23:08:55
97,Chernyshevskiy,63.0128,112.4714,-2.11,96,100,3.84,RU,2023-10-03 23:08:55
98,Patterson,37.4716,-121.1297,28.08,33,1,3.36,US,2023-10-03 23:08:55
99,Dorado,18.4588,-66.2677,27.38,95,75,4.12,PR,2023-10-03 23:08:55
100,Hīt,33.6416,42.8251,26.76,40,100,0.96,IQ,2023-10-03 23:08:55
101,Itoman,26.1247,127.6694,27.08,94,75,5.66,JP,2023-10-03 23:08:55
102,Faaa,-17.55,-149.6,28.98,70,20,4.63,PF,2023-10-03 23:08:55
103,Mirny,62.5353,113.9611,-4.31,92,100,4.02,RU,2023-10-03 23:08:56
104,Sinabang,2.4803,96.3801,26.19,83,100,3.78,ID,2023-10-03 23:08:56
105,Puerto Ayora,-0.7393,-90.3518,23.64,93,70,0.89,EC,2023-10-03 23:08:56
106,Haiku-Pauwela,20.9219,-156.3051,30.01,55,40,5.14,US,2023-10-03 23:08:56
107,Minas de Marcona,-15.2119,-75.1103,13.87,88,82,7.19,PE,2023-10-03 23:08:56
108,Albertina,-22.2008,-46.6158,22.95,68,93,1.25,BR,2023-10-03 23:08:56
109,Trégunc,47.85,-3.85,10.33,81,54,1.6,FR,2023-10-03 23:08:56
110,Aripuanã,-9.1667,-60.6333,30.0,48,78,1.74,BR,2023-10-03 23:08:37
111,Wewak,-3.5534,143.6268,26.17,84,100,1.33,PG,2023-10-03 23:08:56
112,Port Macquarie,-31.4333,152.9167,24.94,57,2,9.35,AU,2023-10-03 23:08:56
113,Urangan,-25.3,152.9,22.89,72,26,5.75,AU,2023-10-03 23:08:56
114,Cabo San Lucas,22.8909,-109.9124,31.21,66,40,5.66,MX,2023-10-03 23:08:57
115,Kavieng,-2.5744,150.7967,28.42,74,70,2.12,PG,2023-10-03 23:08:57
116,Kuta,-8.7233,115.1723,25.0,100,20,0.51,ID,2023-10-03 23:08:57
117,Jijelli,36.8205,5.7667,22.63,67,0,2.05,DZ,2023-10-03 23:08:57
118,Tiksi,71.6872,128.8694,-3.19,96,100,2.52,RU,2023-10-03 23:08:57
119,Dapa,9.7594,126.0531,28.32,75,71,1.15,PH,2023-10-03 23:08:57
120,Touros,-5.1989,-35.4608,25.8,70,38,6.77,BR,2023-10-03 23:07:30
121,Manokwari,-0.8667,134.0833,26.64,75,96,0.6,ID,2023-10-03 23:08:57
122,Yinchuan,38.4681,106.2731,16.1,31,100,6.78,CN,2023-10-03 23:08:58
123,Mpika,-11.8343,31.4529,16.61,68,76,2.97,ZM,2023-10-03 23:08:58
124,Tôlanaro,-25.0319,46.9987,17.92,76,14,5.34,MG,2023-10-03 23:08:58
125,Saint Paul Harbor,57.79,-152.4072,10.73,37,0,5.14,US,2023-10-03 23:08:58
126,Pandan,14.0453,124.1694,28.14,79,98,3.94,PH,2023-10-03 23:08:58
127,Zaragoza,41.6561,-0.8773,20.61,58,0,5.66,ES,2023-10-03 23:08:58
128,Tanout,14.9709,8.8879,30.9,31,96,3.93,NE,2023-10-03 23:08:58
129,North Battleford,52.7834,-108.2847,15.78,37,3,5.88,CA,2023-10-03 23:08:58
130,Urcos,-13.6861,-71.6228,18.94,78,100,2.67,PE,2023-10-03 23:08:58
131,Tshabong,-26.05,22.45,23.71,25,3,8.46,BW,2023-10-03 23:08:58
132,Mount Gambier,-37.8333,140.7667,10.51,79,58,1.6,AU,2023-10-03 23:08:58
133,Hacienda Huancane,-15.8222,-70.8856,9.42,37,22,6.89,PE,2023-10-03 23:08:59
134,Bredasdorp,-34.5322,20.0403,13.87,97,93,2.65,ZA,2023-10-03 23:08:59
135,Shimanovsk,52.0,127.7,5.38,91,100,4.38,RU,2023-10-03 23:08:59
136,Mahina,-17.5065,-149.489,28.87,70,20,4.63,PF,2023-10-03 23:04:16
137,Inari,68.906,27.0288,1.11,93,100,1.2,FI,2023-10-03 23:08:59
138,Chibougamau,49.9168,-74.3659,14.88,85,100,0.64,CA,2023-10-03 23:08:59
139,Kurumkan,54.3,110.3,-0.49,76,43,1.79,RU,2023-10-03 23:08:59
140,Thompson,55.7435,-97.8558,9.09,93,100,1.54,CA,2023-10-03 23:08:59
141,Vadsø,70.0744,29.7487,2.09,80,100,2.57,NO,2023-10-03 23:08:59
142,Mount Isa,-20.7333,139.5,24.87,33,37,7.2,AU,2023-10-03 23:08:59
143,Kananga,-5.8958,22.4178,21.4,91,94,0.89,CD,2023-10-03 23:09:00
144,Arkhangelsk,64.5401,40.5433,6.74,79,98,2.34,RU,2023-10-03 23:09:00
145,Cruzeiro do Sul,-29.5128,-51.9853,20.27,81,88,1.6,BR,2023-10-03 23:09:00
146,Jamestown,42.097,-79.2353,23.24,65,0,2.57,US,2023-10-03 23:04:35
147,Fale old settlement,-9.3852,-171.2468,28.73,77,33,8.42,TK,2023-10-03 23:09:00
148,Katsuura,35.1333,140.3,21.66,73,100,3.89,JP,2023-10-03 23:09:00
149,La Concepción,8.5167,-82.6167,23.41,95,99,0.91,PA,2023-10-03 23:09:00
150,Mwene-Ditu,-7.0,23.45,21.57,71,94,0.96,CD,2023-10-03 23:09:00
151,Mokhotlong,-29.2894,29.0675,14.2,36,0,0.89,LS,2023-10-03 23:09:00
152,Koné,-21.0595,164.8658,24.48,64,79,4.46,NC,2023-10-03 23:09:01
153,Roden,49.8956,9.6264,10.85,88,3,1.34,DE,2023-10-03 23:09:01
154,Baise City,23.8997,106.6133,23.64,92,40,0.2,CN,2023-10-03 23:09:01
155,Glace Bay,46.1969,-59.957,16.15,82,20,3.13,CA,2023-10-03 23:09:01
156,Badger,64.8,-147.5333,0.45,94,100,2.06,US,2023-10-03 23:08:59
157,Mejit,10.2753,170.8646,28.53,79,23,7.95,MH,2023-10-03 23:09:01
158,Road Town,18.4167,-64.6167,27.05,75,100,6.87,VG,2023-10-03 23:09:01
159,Sitka,57.0531,-135.33,11.94,71,75,7.2,US,2023-10-03 23:09:01
160,Fortaleza,-3.7227,-38.5247,27.07,78,75,4.63,BR,2023-10-03 23:05:03
161,Saldanha,-33.0117,17.9442,14.98,88,100,2.38,ZA,2023-10-03 23:09:01
162,Rajapalaiyam,9.45,77.5667,25.65,73,54,1.56,IN,2023-10-03 23:09:02
163,Kharela,25.55,79.8167,23.87,42,22,1.04,IN,2023-10-03 23:09:02
164,Berezovyy,51.6667,135.7,6.2,84,71,0.66,RU,2023-10-03 23:09:02
165,Tura,25.5198,90.2201,22.87,94,100,2.39,IN,2023-10-03 23:09:02
166,Jinchang,38.4953,102.1739,14.68,54,100,2.11,CN,2023-10-03 23:09:02
167,Igarka,67.4667,86.5833,-1.07,90,8,6.19,RU,2023-10-03 23:09:02
168,Crane,31.3974,-102.3501,22.34,70,44,10.78,US,2023-10-03 23:09:02
169,Portland,45.5234,-122.6762,19.43,74,75,4.12,US,2023-10-03 23:04:04
170,Uturoa,-16.7333,-151.4333,26.01,78,12,8.32,PF,2023-10-03 23:09:02
171,Chamrajnagar,11.9167,76.95,19.21,97,59,0.96,IN,2023-10-03 23:09:03
172,Cachoeiro de Itapemirim,-20.8489,-41.1128,22.54,97,100,1.1,BR,2023-10-03 23:09:03
173,Saint-Pierre,-21.3393,55.4781,21.82,88,100,4.63,RE,2023-10-03 23:09:03
174,Chonchi,-42.6128,-73.8092,11.18,89,81,0.35,CL,2023-10-03 23:09:03
175,Jayapura,-2.5333,140.7,27.66,80,83,1.88,ID,2023-10-03 23:09:03
176,Krasnokamsk,58.0802,55.7541,6.75,97,9,1.84,RU,2023-10-03 23:09:03
177,Pacific Grove,36.6177,-121.9166,17.18,82,0,4.63,US,2023-10-03 23:09:03
178,Dudinka,69.4058,86.1778,-0.74,86,33,8.49,RU,2023-10-03 23:09:03
179,Walvis Bay,-22.9575,14.5053,12.83,80,15,1.79,NA,2023-10-03 23:08:13
180,Susuman,62.7833,148.1667,-1.12,70,55,1.79,RU,2023-10-03 23:09:04
181,Lebu,-37.6167,-73.65,9.69,73,7,4.38,CL,2023-10-03 23:09:04
182,Nogliki,51.8333,143.1667,7.41,86,10,7.6,RU,2023-10-03 23:09:04
183,Jining,35.405,116.5814,17.52,75,97,0.81,CN,2023-10-03 23:09:04
184,Hınıs,39.3606,41.7022,9.96,81,98,0.74,TR,2023-10-03 23:09:04
185,Isafjordur,66.0755,-23.124,3.67,95,100,6.8,IS,2023-10-03 23:09:04
186,Sauðarkrokur,65.7461,-19.6394,4.25,91,99,1.96,IS,2023-10-03 23:09:04
187,Porto-Novo,6.4965,2.6036,25.58,86,100,2.06,BJ,2023-10-03 23:09:04
188,Talnakh,69.4865,88.3972,0.67,95,100,6.54,RU,2023-10-03 23:09:05
189,Gizo Government Station,-8.103,156.8419,27.9,80,99,3.26,SB,2023-10-03 23:09:05
190,Atar,20.5169,-13.0499,34.33,13,99,2.52,MR,2023-10-03 23:09:05
191,Karungdong,5.8844,121.263,27.35,81,28,1.26,PH,2023-10-03 23:09:05
192,Naryan-Mar,67.6713,53.087,3.95,78,100,9.39,RU,2023-10-03 23:09:05
193,Along,28.1667,94.7667,22.16,98,70,0.55,IN,2023-10-03 23:07:19
194,Sayaxché,16.5167,-90.1667,30.16,70,69,0.45,GT,2023-10-03 23:09:05
195,Camiri,-20.05,-63.5167,28.64,51,1,1.23,BO,2023-10-03 23:09:05
196,Mil’kovo,55.6078,37.7956,11.95,62,99,6.67,RU,2023-10-03 23:09:05
197,Tofol,5.3248,163.0078,27.88,89,100,8.23,FM,2023-10-03 23:09:05
198,Nalhāti,24.3,87.8167,24.74,95,99,4.73,IN,2023-10-03 23:09:06
199,Saint Croix,17.7397,-64.7388,26.09,88,75,6.17,VI,2023-10-03 23:09:06
200,Bardai,11.65,7.2333,22.46,79,96,2.59,NG,2023-10-03 23:09:06
201,Puerto Baquerizo Moreno,-0.9,-89.6,22.93,86,80,5.11,EC,2023-10-03 23:09:06
202,San Isidro de Curuguaty,-24.5167,-55.7,32.75,39,78,3.18,PY,2023-10-03 23:09:06
203,Yuanping,38.7153,112.7575,14.31,43,100,2.91,CN,2023-10-03 23:09:06
204,Cartagena del Chairá,1.3349,-74.8429,27.8,68,100,0.58,CO,2023-10-03 23:09:06
205,Acapulco de Juárez,16.8634,-99.8901,30.9,70,100,3.6,MX,2023-10-03 23:09:06
206,Akureyri,65.6835,-18.0878,3.67,100,100,1.23,IS,2023-10-03 23:07:45
207,Kulunda,52.566,78.9385,6.54,56,0,2.35,RU,2023-10-03 23:09:06
208,Lebyazh'ye,55.2689,66.4947,11.53,59,100,5.55,RU,2023-10-03 23:09:07
209,Lethem,3.3803,-59.7968,31.53,43,85,2.74,GY,2023-10-03 23:09:07
210,Muscatine,41.4667,-91.1335,27.56,32,78,5.89,US,2023-10-03 23:09:07
211,Luanco,43.6152,-5.7934,18.52,91,90,5.2,ES,2023-10-03 23:09:07
212,Enewetak,11.3474,162.3373,29.28,76,53,7.72,MH,2023-10-03 23:09:07
213,Puerto Armuelles,8.2833,-82.8667,27.27,74,99,2.24,PA,2023-10-03 23:09:07
214,Olonkinbyen,70.9221,-8.7187,0.59,60,100,5.84,SJ,2023-10-03 23:09:08
215,Kirensk,57.7853,108.1119,2.2,65,100,4.47,RU,2023-10-03 23:09:08
216,Ancud,-41.8697,-73.8203,8.48,83,27,1.93,CL,2023-10-03 23:09:08
217,Yaren,-0.5472,166.916,29.18,68,97,1.57,NR,2023-10-03 23:09:08
218,São João da Barra,-21.6403,-41.0511,23.05,93,68,3.0,BR,2023-10-03 23:08:08
219,Novodvinsk,64.4165,40.8122,6.55,79,100,2.41,RU,2023-10-03 23:09:08
220,Nemuro,43.3236,145.575,14.14,71,100,1.1,JP,2023-10-03 23:09:08
221,Teófilo Otoni,-17.8575,-41.5053,23.2,91,97,0.42,BR,2023-10-03 23:06:10
222,San Antonio Oeste,-40.7319,-64.9477,14.81,40,97,3.59,AR,2023-10-03 23:09:08
223,Taoudenni,22.6783,-3.9836,32.62,17,1,6.88,ML,2023-10-03 23:09:09
224,Lihue,21.9789,-159.3672,28.25,66,40,4.63,US,2023-10-03 23:09:09
225,Ta`ū,-14.2336,-169.5144,26.84,81,61,7.88,AS,2023-10-03 23:09:09
226,Kadnikov,59.5022,40.338,10.97,92,100,3.89,RU,2023-10-03 23:09:09
227,Longyearbyen,78.2186,15.6401,-2.09,69,75,7.72,SJ,2023-10-03 23:09:09
228,Nyurba,63.2842,118.3319,-3.87,79,32,1.79,RU,2023-10-03 23:09:09
229,Kavaratti,10.5669,72.642,27.05,77,88,2.29,IN,2023-10-03 23:09:09
230,Novyy Urgal,51.0736,132.5642,4.99,78,100,1.45,RU,2023-10-03 23:09:09
231,Vorkuta,67.5,64.0,-0.03,92,86,3.19,RU,2023-10-03 23:09:09
232,El Granada,37.5027,-122.4694,22.73,61,20,6.17,US,2023-10-03 23:08:58
233,São José da Coroa Grande,-8.8978,-35.1478,25.03,71,19,4.4,BR,2023-10-03 23:09:09
234,Humaitá,-7.5061,-63.0208,33.1,31,92,1.42,BR,2023-10-03 23:07:34
235,Weno,7.4515,151.8468,30.97,70,40,3.09,FM,2023-10-03 23:09:10
236,Arafat,21.3594,39.9664,29.6,64,0,0.05,SA,2023-10-03 23:09:10
237,Ensenada,31.8667,-116.6167,22.75,74,0,4.29,MX,2023-10-03 23:00:04
238,Arrondissement de Morlaix,48.5833,-4.0,10.06,93,0,3.09,FR,2023-10-03 23:09:10
239,Settat,33.0007,-7.6204,20.9,55,1,4.28,MA,2023-10-03 23:09:10
240,Prachuap Khiri Khan,12.2167,99.75,22.64,95,100,0.65,TH,2023-10-03 23:05:22
241,Buritizeiro,-17.3511,-44.9622,26.96,51,94,1.74,BR,2023-10-03 23:09:10
242,Flying Fish Cove,-10.4217,105.6791,23.82,83,100,5.66,CX,2023-10-03 23:09:10
243,Amaliáda,37.8,21.35,18.14,77,20,0.0,GR,2023-10-03 23:09:10
244,Tazovsky,67.4667,78.7,0.16,86,14,6.18,RU,2023-10-03 23:09:11
245,Iaciara,-14.0958,-46.6317,31.81,33,100,1.93,BR,2023-10-03 23:04:25
246,Petropavlovsk-Kamchatskiy,53.0452,158.6483,7.91,87,75,6.71,RU,2023-10-03 23:08:22
247,Sretensk,52.2453,117.7093,-0.59,63,0,1.38,RU,2023-10-03 23:09:11
248,Mar del Plata,-38.0023,-57.5575,11.53,97,100,2.57,AR,2023-10-03 23:09:11
249,Alice Springs,-23.7,133.8833,16.75,19,0,6.69,AU,2023-10-03 23:06:27
250,Qaqortoq,60.7167,-46.0333,2.53,92,99,0.71,GL,2023-10-03 23:09:11
251,Laojunmiao,39.8333,97.7333,8.07,59,69,3.07,CN,2023-10-03 23:09:11
252,Kununurra,-15.7667,128.7333,27.99,69,82,1.54,AU,2023-10-03 23:09:11
253,Argostoli,38.1811,20.489,21.96,70,0,0.93,GR,2023-10-03 23:09:12
254,San Patricio,28.017,-97.5169,31.28,63,66,5.14,US,2023-10-03 23:09:12
255,Port Lincoln,-34.7333,135.8667,12.2,55,51,7.98,AU,2023-10-03 23:09:12
256,Geraldton,-28.7667,114.6,8.23,87,0,3.6,AU,2023-10-03 23:09:12
257,Angaur State,6.906,134.13,25.67,83,100,1.46,PW,2023-10-03 23:09:12
258,California City,35.1258,-117.9859,25.7,26,0,2.57,US,2023-10-03 23:09:12
259,Goundam,16.4145,-3.6708,34.36,19,35,2.63,ML,2023-10-03 23:09:12
260,Utrik,11.2278,169.8474,28.47,76,55,8.12,MH,2023-10-03 23:09:12
261,Kirakira,-10.4544,161.9205,24.78,97,100,4.44,SB,2023-10-03 23:09:12
262,Gaalkacyo,6.7697,47.4308,25.54,75,94,8.18,SO,2023-10-03 23:09:12
263,Hanceville,34.0607,-86.7675,26.9,40,0,1.53,US,2023-10-03 23:09:13
264,Santa Rosa,14.3122,121.1114,26.25,98,98,4.99,PH,2023-10-03 23:09:13
265,Luanda,-8.8368,13.2343,24.0,88,100,3.6,AO,2023-10-03 23:08:12
266,Yeppoon,-23.1333,150.7333,22.88,71,19,5.65,AU,2023-10-03 23:09:13
267,Barkhan,29.8977,69.5256,21.28,13,0,1.86,PK,2023-10-03 23:09:13
268,Holbæk,55.7167,11.7167,12.4,87,20,4.47,DK,2023-10-03 23:09:13
269,Tindouf,27.6711,-8.1474,26.95,23,0,4.71,DZ,2023-10-03 23:09:13
270,Little Falls,40.869,-74.2082,22.6,75,0,2.06,US,2023-10-03 23:09:13
271,Arraial do Cabo,-22.9661,-42.0278,21.16,90,22,3.79,BR,2023-10-03 23:09:13
272,Hasaki,35.7333,140.8333,18.22,63,100,6.58,JP,2023-10-03 23:09:14
273,Atafu Village,-8.5421,-172.5159,29.19,75,65,7.79,TK,2023-10-03 23:09:14
274,Kajaani,64.2273,27.7285,6.03,100,75,1.03,FI,2023-10-03 23:09:14
275,Codrington,-38.2667,141.9667,11.94,69,61,1.88,AU,2023-10-03 23:09:14
276,Gridley,39.3638,-121.6936,27.94,36,0,2.57,US,2023-10-03 23:09:14
277,Hakui,36.8833,136.7833,18.76,77,99,1.8,JP,2023-10-03 23:09:14
278,Bac Lieu,9.285,105.7244,25.41,91,64,3.25,VN,2023-10-03 23:09:14
279,Sihanoukville,10.6093,103.5296,24.97,100,75,0.51,KH,2023-10-03 23:09:14
280,Oyama,36.3,139.8,19.64,87,100,3.31,JP,2023-10-03 23:06:16
281,Kencong,-8.2833,113.3667,23.49,87,45,0.97,ID,2023-10-03 23:09:14
282,Ginir,7.1333,40.7,14.87,78,25,2.1,ET,2023-10-03 23:09:15
283,Chul'man,56.8479,124.9104,-2.03,94,100,3.58,RU,2023-10-03 23:09:15
284,Keelung,25.1283,121.7419,26.86,93,94,9.25,TW,2023-10-03 23:09:15
285,Kruisfontein,-34.0033,24.7314,16.6,88,65,2.01,ZA,2023-10-03 23:09:15
286,Saipan,15.1355,145.701,30.39,70,40,8.23,MP,2023-10-03 23:09:15
287,Afaahiti,-17.75,-149.2833,27.93,84,16,8.4,PF,2023-10-03 23:09:15
288,Hilo,19.7297,-155.09,27.79,74,0,6.17,US,2023-10-03 23:07:38
289,Westport,41.1415,-73.3579,21.39,78,0,2.06,US,2023-10-03 23:09:15
290,Altınyayla,39.2725,36.751,7.8,91,7,1.69,TR,2023-10-03 23:09:15
291,Drayton Valley,53.2168,-114.9854,13.99,49,34,1.79,CA,2023-10-03 23:09:15
292,Ketchikan,55.3422,-131.6461,13.26,94,100,0.0,US,2023-10-03 23:09:16
293,Ratnagiri,16.9833,73.3,25.07,88,97,1.32,IN,2023-10-03 23:09:16
294,Dubbo,-32.25,148.6167,19.07,77,100,10.29,AU,2023-10-03 23:00:42
295,Alaca,40.1683,34.8425,9.31,89,5,1.89,TR,2023-10-03 23:09:16
296,Bolivar,37.6145,-93.4105,24.77,59,100,6.42,US,2023-10-03 23:09:16
297,Lorengau,-2.0226,147.2712,25.3,91,100,2.87,PG,2023-10-03 23:09:16
298,Nuuk,64.1835,-51.7216,4.34,75,75,3.09,GL,2023-10-03 23:08:30
299,Guerrero Negro,27.9769,-114.0611,22.96,58,45,5.29,MX,2023-10-03 23:09:16
300,Solsona,41.994,1.5171,18.69,90,82,0.31,ES,2023-10-03 23:09:16
301,Lā‘ie,21.6477,-157.9253,28.89,65,5,0.45,US,2023-10-03 23:09:16
302,Fort McMurray,56.7268,-111.381,14.73,54,100,4.12,CA,2023-10-03 23:06:02
303,Ubá,-21.12,-42.9428,23.88,89,45,2.09,BR,2023-10-03 23:08:51
304,Ventspils,57.3894,21.5606,14.96,94,100,6.69,LV,2023-10-03 23:09:17
305,Avarua,-21.2078,-159.775,24.03,73,75,8.23,CK,2023-10-03 23:09:17
306,Lompoc,34.6391,-120.4579,24.63,52,20,4.63,US,2023-10-03 23:04:23
307,Sosnogorsk,63.6023,53.8817,5.86,57,100,0.45,RU,2023-10-03 23:09:17
308,Machico,32.7,-16.7667,24.35,78,20,6.69,PT,2023-10-03 23:09:17
309,Iskateley,67.6803,53.1512,3.9,78,100,9.39,RU,2023-10-03 23:09:17
310,Aasiaat,68.7098,-52.8699,-7.39,65,18,2.78,GL,2023-10-03 23:09:17
311,Wagar,16.1525,36.2032,30.28,44,0,3.54,SD,2023-10-03 23:09:17
312,Kralendijk,12.15,-68.2667,30.99,79,0,6.17,BQ,2023-10-03 23:09:18
313,Prince Rupert,54.3161,-130.3201,11.94,96,100,12.86,CA,2023-10-03 23:06:38
314,Banda Aceh,5.5577,95.3222,26.35,81,100,2.09,ID,2023-10-03 23:09:18
315,Belmonte,-15.8631,-38.8828,24.97,77,93,6.01,BR,2023-10-03 23:09:18
316,Barra de Santo Antônio,-9.4047,-35.5072,23.6,78,3,4.78,BR,2023-10-03 23:09:18
317,Garissa,-0.4536,39.6401,24.63,76,52,7.37,KE,2023-10-03 23:09:18
318,Kiunga,-6.1219,141.2906,23.32,99,100,0.94,PG,2023-10-03 23:09:18
319,Mampong,7.0627,-1.4001,21.66,98,100,2.49,GH,2023-10-03 23:09:18
320,Waliso,8.5333,37.9833,14.84,65,51,3.27,ET,2023-10-03 23:09:18
321,Kolonia Town,6.964,158.206,29.06,84,100,2.06,FM,2023-10-03 23:09:18
322,Bo`ka,40.8108,69.1986,15.79,25,6,1.56,UZ,2023-10-03 23:09:19
323,Paramonga,-10.6667,-77.8333,18.99,89,91,4.39,PE,2023-10-03 23:09:19
324,Amga,60.8953,131.9608,1.66,86,100,2.68,RU,2023-10-03 23:09:19
325,San Andrés,12.5847,-81.7006,29.01,84,40,1.54,CO,2023-10-03 23:08:49
326,Vallenar,-28.5708,-70.7581,15.88,47,43,1.61,CL,2023-10-03 23:09:19
327,Ulsteinvik,62.3432,5.8487,10.95,91,99,6.26,NO,2023-10-03 23:09:19
328,Ola,59.5833,151.2833,6.9,54,66,4.06,RU,2023-10-03 23:09:19
329,Aswān,24.0934,32.907,28.73,29,2,8.09,EG,2023-10-03 23:09:19
330,Santanyí,39.3546,3.1291,20.74,74,57,4.34,ES,2023-10-03 23:09:19
331,Sioux Center,43.0797,-96.1756,18.92,51,76,10.01,US,2023-10-03 23:09:19
332,Suwałki,54.1118,22.9309,18.08,68,99,7.48,PL,2023-10-03 23:09:20
333,Baxter,46.3433,-94.2867,23.95,64,40,2.06,US,2023-10-03 23:07:03
334,Anuradhapura,8.3565,80.4173,24.6,85,88,4.05,LK,2023-10-03 23:09:20
335,Okoneshnikovo,54.8377,75.0834,7.37,56,92,3.16,RU,2023-10-03 23:09:20
336,Basco,20.4487,121.9702,28.49,87,100,12.08,PH,2023-10-03 23:09:20
337,Hithadhoo,-0.6,73.0833,27.55,80,66,5.4,MV,2023-10-03 23:09:20
338,Orchard Homes,46.8633,-114.0484,13.57,77,75,0.45,US,2023-10-03 23:09:20
339,Tashtagol,52.7657,87.8894,5.29,87,1,0.89,RU,2023-10-03 23:09:20
340,Loíza,18.4313,-65.8802,27.64,86,75,3.6,PR,2023-10-03 23:09:20
341,Palo Santo,-25.5633,-59.3378,24.72,85,64,4.8,AR,2023-10-03 23:09:21
342,Homer,59.6425,-151.5483,8.87,49,0,5.66,US,2023-10-03 23:09:21
343,Karratha,-20.7377,116.8463,25.74,25,47,4.55,AU,2023-10-03 23:09:21
344,Yankton,42.8711,-97.3973,23.14,68,100,6.69,US,2023-10-03 23:08:04
345,Fairmont,39.4851,-80.1426,22.54,68,9,1.81,US,2023-10-03 23:09:21
346,Cidreira,-30.1811,-50.2056,17.35,85,100,6.74,BR,2023-10-03 23:09:21
347,La Leonesa,-27.0379,-58.7035,23.88,86,70,2.78,AR,2023-10-03 23:09:21
348,Tal'menka,53.8183,83.5677,4.31,84,0,1.77,RU,2023-10-03 23:09:21
349,Santo Antônio do Içá,-3.1022,-67.9397,30.36,43,92,0.94,BR,2023-10-03 23:09:22
350,Juneau,58.3019,-134.4197,10.77,76,75,3.09,US,2023-10-03 23:06:33
351,Tongouson,5.0214,120.1328,28.27,74,37,3.28,PH,2023-10-03 23:09:22
352,Tete,-16.1564,33.5867,22.56,50,0,4.03,MZ,2023-10-03 23:09:22
353,Tokār,18.4254,37.729,29.23,73,3,3.55,SD,2023-10-03 23:09:22
354,Conduaga,8.862,117.4893,26.36,81,98,2.04,PH,2023-10-03 23:09:22
355,Kasane,-17.8167,25.15,20.67,39,91,2.23,BW,2023-10-03 23:09:22
356,Sevastopol,44.6,33.5333,13.33,51,0,3.13,UA,2023-10-03 23:09:22
357,Kingscliff,-28.2667,153.5667,23.01,73,100,7.72,AU,2023-10-03 23:09:22
358,Canning,22.3189,88.6714,26.01,96,99,1.83,IN,2023-10-03 23:09:23
359,New Norfolk,-42.7826,147.0587,12.09,66,99,1.0,AU,2023-10-03 23:09:23
360,Kapaa,22.0752,-159.319,28.73,73,40,4.63,US,2023-10-03 23:09:23
361,Gadzhiyevo,69.2551,33.3362,3.25,80,100,1.39,RU,2023-10-03 23:09:23
362,Zamora,-4.0692,-78.9567,25.09,82,47,0.42,EC,2023-10-03 23:09:23
363,Nantucket,41.2835,-70.0995,15.72,88,0,4.63,US,2023-10-03 23:09:23
364,Kouroussa,10.65,-9.8833,21.92,94,98,1.56,GN,2023-10-03 23:09:23
365,Chardara,41.2547,67.9692,16.72,34,1,3.68,KZ,2023-10-03 23:09:23
366,Santiago de Cao,-7.9589,-79.2392,20.07,77,80,5.14,PE,2023-10-03 23:09:24
367,Fort William,56.8165,-5.1121,11.28,94,97,3.09,GB,2023-10-03 23:09:24
368,East London,-33.0153,27.9116,18.32,78,29,2.53,ZA,2023-10-03 23:09:24
369,Alice,27.7523,-98.0697,32.88,58,0,4.12,US,2023-10-03 23:09:24
370,Lázaro Cárdenas,17.9583,-102.2,29.63,71,89,3.38,MX,2023-10-03 23:07:54
371,Qom,34.6401,50.8764,22.97,36,85,3.72,IR,2023-10-03 23:09:24
372,Farafangana,-22.8167,47.8333,20.95,62,91,1.64,MG,2023-10-03 23:09:24
373,Ust-Nera,64.5667,143.2,-1.55,74,100,1.34,RU,2023-10-03 23:09:24
374,Ciamis,-7.3257,108.3534,22.35,93,98,0.4,ID,2023-10-03 23:09:24
375,Gabú,12.2833,-14.2167,24.99,94,100,2.08,GW,2023-10-03 23:09:25
376,Taza,34.25,-3.75,21.67,58,63,2.42,MA,2023-10-03 23:09:25
377,Bargaal,11.2864,51.0773,26.54,83,5,3.36,SO,2023-10-03 23:09:25
378,Bubaque,11.2833,-15.8333,27.98,80,100,4.12,GW,2023-10-03 23:09:25
379,Bayanaul,50.7889,75.6956,6.02,47,11,1.32,KZ,2023-10-03 23:09:25
380,Mahdia,35.5047,11.0622,21.97,69,0,2.6,TN,2023-10-03 23:09:25
381,Lázaro Cárdenas,17.9583,-102.2,29.63,71,89,3.38,MX,2023-10-03 23:07:09
382,Tezu,27.9167,96.1667,23.47,99,75,1.06,IN,2023-10-03 23:09:25
383,Bahādurganj,26.2667,87.8167,24.36,96,100,5.48,IN,2023-10-03 23:09:25
384,Tidjikja,18.5564,-11.4271,33.9,18,76,3.99,MR,2023-10-03 23:09:26
385,Laguna,38.421,-121.4238,28.77,29,0,3.09,US,2023-10-03 23:09:26
386,El Bauga,18.262,33.9081,31.75,24,0,4.38,SD,2023-10-03 23:09:26
387,North Bend,43.4065,-124.2243,16.63,82,100,7.72,US,2023-10-03 23:05:07
388,Muscat,23.6139,58.5922,30.01,50,3,0.4,OM,2023-10-03 23:06:10
389,Moyale,3.5167,39.0584,21.37,70,37,4.64,KE,2023-10-03 23:09:26
390,Antsiranana,-12.2787,49.2917,23.07,75,31,7.86,MG,2023-10-03 23:09:26
391,Doğubeyazıt,39.5469,44.0842,11.42,73,98,0.51,TR,2023-10-03 23:09:26
392,Sovetskoye,52.2861,85.4131,6.53,85,37,0.48,RU,2023-10-03 23:09:26
393,Sudak,44.85,34.9667,14.67,52,0,2.5,UA,2023-10-03 23:09:27
394,Glendale,33.5387,-112.186,30.29,21,0,2.68,US,2023-10-03 23:09:27
395,I-n-Salah,27.1935,2.4607,29.06,28,0,10.18,DZ,2023-10-03 23:09:27
396,Beau Vallon,-20.4189,57.6953,21.79,84,2,2.69,MU,2023-10-03 23:09:27
397,Qarqaraly,49.4058,75.4742,5.8,90,68,2.12,KZ,2023-10-03 23:09:27
398,Hanzhong,33.0728,107.0303,16.24,95,100,0.97,CN,2023-10-03 23:09:27
399,Hampton Bays,40.869,-72.5176,18.72,92,0,1.54,US,2023-10-03 23:09:27
400,Hammerfest,70.6634,23.6821,1.25,93,75,1.54,NO,2023-10-03 23:09:27
401,Nagqu Prefecture,31.5,92.0,1.76,84,4,2.24,CN,2023-10-03 23:09:28
402,Tennō,39.9,139.9667,18.15,64,99,2.64,JP,2023-10-03 23:09:28
403,Kovel,51.2153,24.7087,15.99,57,100,7.17,UA,2023-10-03 23:09:28
404,Taytay,14.5678,121.1394,27.19,92,75,3.09,PH,2023-10-03 23:05:18
405,Shitanjing,39.2342,106.3439,12.78,35,98,2.22,CN,2023-10-03 23:09:28
406,Tobol'sk,58.2,68.2667,13.11,77,100,3.58,RU,2023-10-03 23:04:34
407,Valley City,46.9233,-98.0032,24.29,50,0,7.72,US,2023-10-03 23:09:28
408,Revda,56.801,59.9303,10.28,90,100,3.49,RU,2023-10-03 23:09:28
409,Kulhudhuffushi,6.6221,73.07,26.96,84,100,7.25,MV,2023-10-03 23:09:29
410,Umm Hājar,13.2954,19.6966,25.15,78,95,9.64,TD,2023-10-03 23:09:29
411,Pisco,-13.7,-76.2167,19.03,82,0,7.2,PE,2023-10-03 23:09:29
412,Greymouth,-42.4667,171.2,8.26,85,58,1.6,NZ,2023-10-03 23:09:29
413,Lata,40.1629,-8.3327,17.73,85,97,0.57,PT,2023-10-03 23:09:29
414,Fort Bragg,35.139,-79.006,23.73,68,0,1.54,US,2023-10-03 23:09:29
415,Ebon,4.582,168.6964,29.29,70,81,3.33,MH,2023-10-03 23:09:29
416,Coronel Suárez,-37.4547,-61.9334,10.74,97,100,2.48,AR,2023-10-03 23:09:29
417,Pong,19.1493,100.2752,22.7,99,23,0.35,TH,2023-10-03 23:09:29
418,Aginskoye,51.1,114.53,-1.51,77,3,4.88,RU,2023-10-03 23:09:30
419,Port Saint John's,-31.6229,29.5448,19.44,82,0,5.15,ZA,2023-10-03 23:09:30
420,Huarmey,-10.0681,-78.1522,19.93,85,71,3.74,PE,2023-10-03 23:09:30
421,Mugia,43.1041,-9.2179,17.18,84,12,9.38,ES,2023-10-03 23:09:30
422,Okahandja,-21.9833,16.9167,26.03,29,91,2.1,NA,2023-10-03 23:09:30
423,Porto Murtinho,-21.6989,-57.8825,38.78,22,14,4.6,BR,2023-10-03 23:09:30
424,Vilyuysk,63.7553,121.6247,-4.44,80,11,2.24,RU,2023-10-03 23:09:31
425,Mamuju,-2.6748,118.8885,26.38,83,56,1.52,ID,2023-10-03 23:09:31
426,Deschutes River Woods,43.9915,-121.3584,17.37,52,100,1.79,US,2023-10-03 23:09:31
427,Giżycko,54.0381,21.7644,13.8,85,100,9.42,PL,2023-10-03 23:09:31
428,Murudeshwara,14.0943,74.4845,25.04,87,100,0.3,IN,2023-10-03 23:09:31
429,Ndjolé,-0.1783,10.7649,24.16,98,99,0.88,GA,2023-10-03 23:09:31
430,Navia,43.5354,-6.7194,16.8,94,100,2.52,ES,2023-10-03 23:09:31
431,Xilin Hot,43.9667,116.0333,4.56,34,44,4.01,CN,2023-10-03 23:09:31
432,Aleg,17.0481,-13.9209,34.61,24,12,5.93,MR,2023-10-03 23:09:31
433,Gersheim,49.15,7.2,9.5,94,0,2.06,DE,2023-10-03 23:09:32
434,San Antonio de Palé,-1.4014,5.6325,25.42,81,100,3.15,GQ,2023-10-03 23:09:32
435,Council Bluffs,41.2619,-95.8608,25.35,59,75,7.2,US,2023-10-03 23:07:31
436,Oriximiná,-1.7656,-55.8661,31.55,45,100,1.2,BR,2023-10-03 23:09:32
437,Oranjemund,-28.55,16.4333,15.16,80,0,2.3,NA,2023-10-03 23:09:32
438,Dvinskoy Bereznik,62.8551,42.7072,9.7,92,100,3.28,RU,2023-10-03 23:09:32
439,Orkney,-26.9802,26.6727,18.44,39,0,3.13,ZA,2023-10-03 23:09:32
440,Samsun Province,41.25,36.3333,12.42,88,40,2.06,TR,2023-10-03 23:09:33
441,Ladário,-19.0047,-57.6017,34.16,52,31,4.63,BR,2023-10-03 23:09:33
442,Inírida,3.8653,-67.9239,28.35,64,90,0.71,CO,2023-10-03 23:09:33
443,Erdenet,49.0333,104.0833,1.07,81,0,1.59,MN,2023-10-03 23:09:33
444,Iranduba,-3.2847,-60.1861,33.16,32,100,1.69,BR,2023-10-03 23:09:33
445,Marang,5.2056,103.2059,25.18,90,79,1.99,MY,2023-10-03 23:08:18
446,Mili,6.0815,171.735,28.51,78,69,3.49,MH,2023-10-03 23:09:33
447,Lerwick,60.1545,-1.1494,10.0,72,45,11.03,GB,2023-10-03 23:09:33
448,Caleta de Carquín,-11.0925,-77.6267,19.02,88,92,4.33,PE,2023-10-03 23:09:34
449,Plastun,44.7561,136.2939,12.22,67,100,1.79,RU,2023-10-03 23:09:34
450,Phan Rang-Thap Cham,11.5667,108.9833,24.8,90,22,1.13,VN,2023-10-03 23:09:34
451,Kindu,-2.95,25.95,22.77,81,75,0.51,CD,2023-10-03 23:09:34
452,Ware,51.8126,-0.0283,12.92,88,98,4.12,GB,2023-10-03 23:09:34
453,Khandyga,62.6667,135.6,4.73,96,100,1.49,RU,2023-10-03 23:09:34
454,Nieuw Amsterdam,5.8833,-55.0833,29.22,72,20,2.57,SR,2023-10-03 23:09:34
455,Nouadhibou,20.931,-17.0347,27.99,39,3,6.69,MR,2023-10-03 23:09:34
456,Chivilcoy,-34.8957,-60.0167,12.98,93,100,3.42,AR,2023-10-03 23:09:35
457,Fortuna,40.5982,-124.1573,15.16,93,100,5.66,US,2023-10-03 23:07:24
458,White River,-25.3318,31.0117,15.15,69,0,1.52,ZA,2023-10-03 23:09:35
459,Ozark,37.0209,-93.206,24.0,63,97,0.89,US,2023-10-03 23:09:35
460,Newman,37.3138,-121.0208,28.12,33,1,1.79,US,2023-10-03 23:09:35
461,Gouré,13.9835,10.2704,29.87,31,76,3.84,NE,2023-10-03 23:09:35
462,Andergrove,-21.0833,149.1833,24.8,72,11,1.03,AU,2023-10-03 23:09:35
463,Nayoro,44.3506,142.4578,13.0,82,100,1.45,JP,2023-10-03 23:09:35
464,Saacow,1.6279,42.4407,24.72,85,35,5.21,SO,2023-10-03 23:09:36
465,Totness,5.8833,-56.3167,28.03,82,91,7.05,SR,2023-10-03 23:09:36
466,Calama,-22.4667,-68.9333,17.7,28,4,3.5,CL,2023-10-03 23:09:36
467,Atasū,48.6814,71.6433,8.36,72,70,3.12,KZ,2023-10-03 23:09:36
468,Rémire-Montjoly,4.9167,-52.2667,28.02,83,20,2.06,GF,2023-10-03 23:09:36
469,Bengkulu,-3.8004,102.2655,22.59,94,100,1.63,ID,2023-10-03 23:09:36
470,Brak,27.5496,14.2714,23.81,36,0,6.4,LY,2023-10-03 23:09:36
471,Daru,-9.0763,143.2092,26.87,74,83,4.34,PG,2023-10-03 23:09:36
472,Rumonge,-3.9736,29.4386,24.24,42,30,1.08,BI,2023-10-03 23:09:36
473,Salacgrīva,57.7536,24.3581,16.38,84,100,9.71,LV,2023-10-03 23:09:37
474,Muravlenko,63.7898,74.523,1.11,71,26,2.85,RU,2023-10-03 23:09:37
475,Achalpur,21.2572,77.5086,22.59,74,72,3.22,IN,2023-10-03 23:09:37
476,Horta,38.5333,-28.6333,21.12,92,89,3.13,PT,2023-10-03 23:09:37
477,Acaraú,-2.8856,-40.12,25.75,79,56,8.46,BR,2023-10-03 23:09:37
478,Bassar,9.25,0.7833,21.88,95,100,1.0,TG,2023-10-03 23:09:37
479,Salahonda,2.1019,-78.7217,25.83,79,96,7.07,CO,2023-10-03 23:09:37
480,Bolkhov,53.4433,36.0044,10.4,70,81,5.21,RU,2023-10-03 23:09:37
481,Shakargarh,32.2623,75.1668,19.97,52,0,1.39,PK,2023-10-03 23:09:37
482,Sidrolândia,-20.9319,-54.9614,31.78,36,59,3.22,BR,2023-10-03 23:09:38
483,Hornell,42.3279,-77.6611,22.71,77,0,0.89,US,2023-10-03 23:06:33
484,Bismil,37.8486,40.6658,14.06,61,42,0.89,TR,2023-10-03 23:09:38
485,Khasab,26.1799,56.2477,30.68,51,3,0.57,OM,2023-10-03 23:09:38
486,Sabang,5.8933,95.3214,27.27,79,100,2.43,ID,2023-10-03 23:09:38
487,Horodnya,51.8909,31.5974,12.91,58,79,5.6,UA,2023-10-03 23:09:38
488,Sakakah,29.9697,40.2064,25.76,32,83,3.11,SA,2023-10-03 23:09:38
489,Dhidhdhoo,6.8833,73.1,27.38,83,100,7.39,MV,2023-10-03 23:09:38
490,Ennis,52.8436,-8.9864,10.96,93,75,3.6,IE,2023-10-03 23:06:47
491,Katrineholm,58.9959,16.2072,9.89,94,90,3.82,SE,2023-10-03 23:09:39
492,Port Alfred,-33.5906,26.891,16.77,92,44,4.05,ZA,2023-10-03 23:09:39
493,Mollendo,-17.0231,-72.0147,18.22,89,91,4.73,PE,2023-10-03 23:09:39
494,Colonel Hill,22.7667,-74.2167,28.7,71,100,5.94,BS,2023-10-03 23:09:39
495,Anthiyur,11.5833,77.6,24.12,80,41,0.63,IN,2023-10-03 23:09:39
496,Tucupita,9.0622,-62.051,29.28,70,100,3.2,VE,2023-10-03 23:09:39
497,Carnarvon,-24.8667,113.6333,18.05,39,0,8.45,AU,2023-10-03 23:09:39
498,Caldwell,43.6629,-116.6874,18.1,67,0,2.06,US,2023-10-03 23:09:39
499,Medicine Hat,50.0501,-110.6683,17.89,44,4,0.89,CA,2023-10-03 23:09:28
500,Tsiombe,-25.3,45.4833,16.53,69,0,2.59,MG,2023-10-03 23:07:21
501,Sonoita,31.85,-112.8333,29.75,19,0,4.04,MX,2023-10-03 23:09:40
502,Sabinas,27.85,-101.1167,34.43,39,21,5.89,MX,2023-10-03 23:09:40
503,Thurso,58.5927,-3.5259,9.14,81,59,8.35,GB,2023-10-03 23:09:40
504,Maragogi,-9.0122,-35.2225,24.61,74,5,4.16,BR,2023-10-03 23:09:40
505,Thames,-37.1333,175.5333,14.33,52,0,1.3,NZ,2023-10-03 23:09:40
506,Brookings,44.3114,-96.7984,22.37,71,0,9.26,US,2023-10-03 23:08:01
507,Puerto Carreño,6.189,-67.4859,26.64,81,100,2.27,CO,2023-10-03 23:09:40
508,Vila Velha,-20.3297,-40.2925,22.75,92,100,1.34,BR,2023-10-03 23:09:40
509,Lautoka,-17.6167,177.4667,24.92,61,75,2.06,FJ,2023-10-03 23:09:40
510,Rongelap,11.1635,166.8941,28.92,78,99,7.84,MH,2023-10-03 23:09:40
511,Padang,-0.9492,100.3543,24.79,89,100,1.7,ID,2023-10-03 23:09:41
512,Smithers,54.7804,-127.1743,8.51,89,100,1.08,CA,2023-10-03 23:09:41
513,Katabu,-4.9333,122.5167,25.99,80,44,1.59,ID,2023-10-03 23:09:41
514,Richards Bay,-28.783,32.0377,19.57,66,0,1.89,ZA,2023-10-03 23:09:41
515,Bria,6.5423,21.9863,21.65,91,100,0.12,CF,2023-10-03 23:09:41
516,Wuwei,37.9281,102.6414,14.59,60,100,1.43,CN,2023-10-03 23:09:41
517,Shaftesbury,51.0053,-2.1933,10.94,93,88,3.88,GB,2023-10-03 23:09:41
518,Hamilton,39.1834,-84.5333,26.78,54,0,2.57,US,2023-10-03 23:09:41
519,Sunrise Manor,36.2111,-115.0731,26.55,24,0,5.81,US,2023-10-03 23:09:41
520,Yabrūd,33.9674,36.6574,13.46,77,6,1.98,SY,2023-10-03 23:09:42
521,Happy Valley-Goose Bay,53.3168,-60.3315,4.81,57,61,2.94,CA,2023-10-03 23:09:42
522,Jaisalmer,26.9147,70.9181,27.45,44,0,5.51,IN,2023-10-03 23:09:42
523,Forster,-32.1667,152.5167,24.6,55,9,6.62,AU,2023-10-03 22:59:47
524,Selfoss,63.9331,-20.9971,6.69,87,100,3.65,IS,2023-10-03 23:09:42
525,Rouyn-Noranda,48.2398,-79.0288,21.1,57,7,2.36,CA,2023-10-03 23:09:42
526,Halba,34.5428,36.0797,19.95,71,0,0.36,LB,2023-10-03 23:09:42
527,Stutterheim,-32.5708,27.424,12.05,93,9,0.59,ZA,2023-10-03 23:09:42
528,Fernie,49.5,-115.0687,16.24,54,95,1.4,CA,2023-10-03 23:00:18
529,Sturgis,41.7992,-85.4192,26.25,49,0,2.06,US,2023-10-03 23:09:42
530,Riversdale,18.1659,-76.9642,27.27,88,96,0.09,JM,2023-10-03 23:09:43
531,Liski,50.9841,39.5155,9.07,70,36,1.76,RU,2023-10-03 23:09:43
532,Altamira,-3.2033,-52.2064,30.64,44,99,0.52,BR,2023-10-03 23:09:43
533,Inhambane,-23.865,35.3833,19.59,76,0,2.66,MZ,2023-10-03 23:09:43
534,Mont-Laurier,46.5501,-75.4993,19.79,71,7,1.88,CA,2023-10-03 23:09:43
535,Devils Lake,48.1128,-98.8651,22.87,56,0,3.6,US,2023-10-03 23:09:43
536,Mocajuba,-2.5842,-49.5072,31.28,52,85,3.76,BR,2023-10-03 23:09:43
537,Gewanē,10.1664,40.6453,29.68,31,27,2.65,ET,2023-10-03 23:09:43
538,Hotan,37.0997,79.9269,16.85,22,82,2.02,CN,2023-10-03 23:09:44
539,Bouaké,7.6895,-5.0218,22.28,96,100,2.72,CI,2023-10-03 23:09:44
540,Namsos,64.4662,11.4957,6.95,93,100,1.03,NO,2023-10-03 23:09:44
541,Lionel Town,17.8101,-77.2406,28.68,77,62,1.54,JM,2023-10-03 23:09:44
542,Palamós,41.8484,3.1291,23.1,37,100,5.81,ES,2023-10-03 23:09:44
543,Saint-Joseph,-21.3667,55.6167,21.21,89,90,6.49,RE,2023-10-03 23:09:44
544,Jijiga,9.35,42.8,18.58,69,1,0.52,ET,2023-10-03 23:09:44
545,Shambu,9.5667,37.1,10.61,83,44,1.61,ET,2023-10-03 23:09:44
546,Gereida,11.2811,25.1414,25.19,71,80,1.37,SD,2023-10-03 23:09:44
547,Beyneu,45.3167,55.2,16.39,49,98,4.01,KZ,2023-10-03 23:08:32
548,Mhamid,29.82,-5.72,26.57,23,27,3.54,MA,2023-10-03 23:09:45
549,Lichinga,-13.3128,35.2406,15.28,82,4,4.14,MZ,2023-10-03 23:09:45
550,Hamamatsu,34.7,137.7333,18.9,90,100,2.68,JP,2023-10-03 23:09:45
551,Durham,36.0335,-78.8664,22.41,80,67,1.71,US,2023-10-03 23:01:10
552,Fort St. John,56.2499,-120.8529,11.94,50,100,11.83,CA,2023-10-03 23:07:24
553,Troitsko-Pechorsk,62.7084,56.1964,3.72,83,90,1.79,RU,2023-10-03 23:09:45
554,Piti Village,13.4626,144.6933,28.84,86,40,3.6,GU,2023-10-03 23:09:45
555,Cuiabá,-15.5961,-56.0967,29.96,58,0,1.54,BR,2023-10-03 23:05:03
556,Am Timan,11.0297,20.2827,22.17,93,100,3.62,TD,2023-10-03 23:09:45
557,Saint-Philippe,-21.3585,55.7679,21.77,89,97,6.71,RE,2023-10-03 23:09:45
558,Sarangani,5.4033,125.4636,27.86,74,31,2.57,PH,2023-10-03 23:09:46
559,Al Khums,32.6486,14.2619,23.56,68,5,3.3,LY,2023-10-03 23:09:46
560,Paracuru,-3.41,-39.0306,27.28,78,68,6.07,BR,2023-10-03 23:09:46
561,Moroni,-11.7022,43.2551,24.84,82,28,3.61,KM,2023-10-03 23:09:46
562,Kaga-Bandoro,6.9896,19.1874,21.2,96,66,0.71,CF,2023-10-03 23:09:46
563,Pacocha,-17.5833,-71.3333,17.97,89,39,3.67,PE,2023-10-03 23:09:46
564,Balikpapan,-1.2675,116.8289,26.55,94,40,1.54,ID,2023-10-03 23:09:46
565,Buenaventura,3.8801,-77.0312,24.43,94,100,2.99,CO,2023-10-03 23:09:46
566,Mikhaylovka,43.0,71.5,8.71,51,8,1.78,KZ,2023-10-03 23:09:46
567,Saint-François,46.4154,3.9054,11.69,94,75,0.0,FR,2023-10-03 23:09:47
568,Nova Xavantina,-14.6667,-52.35,31.26,45,72,2.25,BR,2023-10-03 23:09:47
569,Garachiko,28.7781,-17.7646,22.06,83,0,5.14,ES,2023-10-03 23:09:47
570,Shingū,33.7333,135.9833,22.41,91,80,2.92,JP,2023-10-03 23:09:47
571,Keflavik,64.0049,-22.5624,6.24,75,20,2.06,IS,2023-10-03 23:09:47
572,Pontes e Lacerda,-15.2261,-59.3353,34.71,31,75,4.1,BR,2023-10-03 23:09:47
573,Labuan,5.2767,115.2417,26.74,83,100,2.15,MY,2023-10-03 23:09:47
574,Entebbe,0.0644,32.4469,23.21,54,88,1.45,UG,2023-10-03 23:09:47
575,Vershino-Darasunskiy,52.35,115.5167,-4.94,70,7,1.86,RU,2023-10-03 23:09:47
