City_ID,City,Lat,Lon,Temp,Humidity,Cloudiness,Wind Speed,Country,Date
0,Ust-Nera,64.5667,143.2,-1.55,74,100,1.34,RU,2023-10-03 22:56:07
1,Invercargill,-46.4,168.35,17.23,51,93,5.36,NZ,2023-10-03 22:47:52
2,Loíza,18.4313,-65.8802,27.58,88,94,1.68,PR,2023-10-03 22:56:07
3,Enewetak,11.3474,162.3373,29.28,76,53,7.72,MH,2023-10-03 22:56:07
4,Dudinka,69.4058,86.1778,-0.74,86,33,8.49,RU,2023-10-03 22:56:07
5,Baruun-Urt,46.6806,113.2792,1.53,66,13,3.7,MN,2023-10-03 22:56:07
6,Angaur State,6.906,134.13,25.67,83,100,1.46,PW,2023-10-03 22:56:08
7,Paracuru,-3.41,-39.0306,27.28,78,68,6.07,BR,2023-10-03 22:56:08
8,Port-aux-Français,-49.35,70.2167,4.43,93,100,20.98,TF,2023-10-03 22:56:08
9,Minas de Marcona,-15.2119,-75.1103,13.87,88,82,7.19,PE,2023-10-03 22:56:08
10,Fiambalá,-27.6871,-67.6149,21.11,9,51,1.45,AR,2023-10-03 22:56:08
11,Jamestown,42.097,-79.2353,24.06,64,0,3.6,US,2023-10-03 22:53:43
12,Bredasdorp,-34.5322,20.0403,13.87,97,93,2.65,ZA,2023-10-03 22:56:08
13,Saint Paul Harbor,57.79,-152.4072,10.73,37,0,5.14,US,2023-10-03 22:56:08
14,Antsiranana,-12.2787,49.2917,23.07,75,31,7.86,MG,2023-10-03 22:56:08
15,Talnakh,69.4865,88.3972,0.67,95,100,6.54,RU,2023-10-03 22:56:08
16,Avarua,-21.2078,-159.775,24.03,73,75,8.23,CK,2023-10-03 22:56:08
17,San Antonio de Palé,-1.4014,5.6325,25.42,81,100,3.15,GQ,2023-10-03 22:56:09
18,Iskateley,67.6803,53.1512,3.9,78,100,9.39,RU,2023-10-03 22:56:09
19,Kavalerovo,44.2661,135.0572,10.78,70,100,0.45,RU,2023-10-03 22:56:09
20,Puerto Natales,-51.7236,-72.4875,5.48,88,34,3.01,CL,2023-10-03 22:56:09
21,West Island,-12.1568,96.8225,23.99,73,100,7.72,CC,2023-10-03 22:56:09
22,Margate,51.3813,1.3862,12.2,78,80,1.34,GB,2023-10-03 22:56:09
23,Coruripe,-10.1256,-36.1756,24.58,78,5,6.04,BR,2023-10-03 22:56:09
24,Saipan,15.1355,145.701,29.39,79,20,7.72,MP,2023-10-03 22:56:09
25,Gorgan,36.8387,54.4348,21.98,78,40,5.14,IR,2023-10-03 22:56:09
26,Port Saint John's,-31.6229,29.5448,19.44,82,0,5.15,ZA,2023-10-03 22:56:09
27,Margaret River,-33.95,115.0667,13.42,69,96,1.61,AU,2023-10-03 22:56:10
28,Grytviken,-54.2811,-36.5092,0.86,75,100,1.67,GS,2023-10-03 22:56:10
29,Ashland,40.8167,-82.2665,25.76,66,1,1.63,US,2023-10-03 22:51:20
30,Federación,-31.0062,-57.8996,19.21,88,63,4.17,AR,2023-10-03 22:56:10
31,Sai Buri,6.7013,101.6168,24.84,89,100,2.7,TH,2023-10-03 22:56:10
32,College,64.8569,-147.8028,0.37,90,100,2.06,US,2023-10-03 22:56:10
33,Turaif,31.6725,38.6637,20.14,73,75,4.12,SA,2023-10-03 22:51:49
34,Adamstown,-25.066,-130.1015,20.4,75,81,8.36,PN,2023-10-03 22:56:10
35,Lebu,-37.6167,-73.65,9.69,73,7,4.38,CL,2023-10-03 22:56:10
36,Longyearbyen,78.2186,15.6401,-2.09,69,75,7.72,SJ,2023-10-03 22:56:10
37,Uturoa,-16.7333,-151.4333,26.01,78,12,8.32,PF,2023-10-03 22:56:10
38,Qaqortoq,60.7167,-46.0333,2.53,92,99,0.71,GL,2023-10-03 22:56:11
39,Petropavlovsk-Kamchatskiy,53.0452,158.6483,7.64,88,75,6.71,RU,2023-10-03 22:56:11
40,Deming,32.2687,-107.7586,28.94,20,0,6.17,US,2023-10-03 22:56:11
41,Berezovyy,51.6667,135.7,6.2,84,71,0.66,RU,2023-10-03 22:56:11
42,Kangding,30.0513,101.9603,13.39,94,74,1.19,CN,2023-10-03 22:56:11
43,Nogliki,51.8333,143.1667,7.41,86,10,7.6,RU,2023-10-03 22:56:11
44,Tura,25.5198,90.2201,22.87,94,100,2.39,IN,2023-10-03 22:56:11
45,Jiuquan,39.7432,98.5174,11.15,37,94,1.25,CN,2023-10-03 22:56:11
46,Olonkinbyen,70.9221,-8.7187,0.59,60,100,5.84,SJ,2023-10-03 22:56:11
47,Sydney,-33.8679,151.2073,23.72,51,0,8.75,AU,2023-10-03 22:53:46
48,Ushuaia,-54.8,-68.3,8.81,53,75,5.14,AR,2023-10-03 22:56:12
49,Arraial do Cabo,-22.9661,-42.0278,22.92,78,75,2.06,BR,2023-10-03 22:56:12
50,Yellowknife,62.456,-114.3525,10.79,88,75,1.54,CA,2023-10-03 22:52:19
51,Rongelap,11.1635,166.8941,28.92,78,99,7.84,MH,2023-10-03 22:56:12
52,Lüderitz,-26.6481,15.1594,19.97,51,10,4.27,NA,2023-10-03 22:56:12
53,Sake,-1.5736,29.045,16.56,63,10,0.27,CD,2023-10-03 22:56:12
54,Port Alfred,-33.5906,26.891,16.77,91,44,4.05,ZA,2023-10-03 22:54:19
55,Souillac,-20.5167,57.5167,23.21,88,75,0.51,MU,2023-10-03 22:56:12
56,Rémire-Montjoly,4.9167,-52.2667,28.02,78,0,2.57,GF,2023-10-03 22:56:12
57,Praia da Vitória,38.7333,-27.0667,22.14,94,75,4.48,PT,2023-10-03 22:56:12
58,Klyuchi,52.2667,79.1667,5.23,54,0,2.59,RU,2023-10-03 22:56:12
59,Bethel,41.3712,-73.414,20.95,82,2,1.07,US,2023-10-03 22:56:07
60,Mpophomeni,-29.5682,30.1862,17.64,41,0,1.99,ZA,2023-10-03 22:56:13
61,Codrington,-38.2667,141.9667,11.94,69,61,1.88,AU,2023-10-03 22:56:13
62,Mont-Laurier,46.5501,-75.4993,26.79,71,7,1.88,CA,2023-10-03 22:55:23
63,Kopong,-24.4833,25.8833,20.13,42,0,3.6,BW,2023-10-03 22:56:13
64,Iqaluit,63.7506,-68.5145,0.39,93,75,7.2,CA,2023-10-03 22:56:13
65,Papatowai,-46.5619,169.4708,17.18,41,99,5.47,NZ,2023-10-03 22:56:13
66,Ribeira Grande,38.5167,-28.7,22.1,91,91,5.81,PT,2023-10-03 22:56:13
67,Cartersville,34.1651,-84.7999,25.8,54,0,0.0,US,2023-10-03 22:51:35
68,Faya-Largeau,17.9257,19.1043,27.44,44,78,13.73,TD,2023-10-03 22:56:13
69,Chongwe,-15.3292,28.682,17.32,70,3,2.49,ZM,2023-10-03 22:56:14
70,Badger,64.8,-147.5333,0.56,91,100,2.06,US,2023-10-03 22:56:14
71,Nikolayevsk-on-Amur,53.1406,140.73,7.87,90,96,0.52,RU,2023-10-03 22:56:14
72,Waitangi,-43.9535,-176.5597,11.01,76,92,2.68,NZ,2023-10-03 22:56:14
73,Happy Valley-Goose Bay,53.3168,-60.3315,7.17,49,75,3.6,CA,2023-10-03 22:56:14
74,Hermanus,-34.4187,19.2345,14.57,91,89,4.42,ZA,2023-10-03 22:54:19
75,Katsuura,35.1333,140.3,21.66,73,100,3.89,JP,2023-10-03 22:56:14
76,Shingū,33.7333,135.9833,22.41,91,80,2.92,JP,2023-10-03 22:56:14
77,Albany,42.6001,-73.9662,20.97,83,0,1.81,US,2023-10-03 22:56:14
78,Khanty-Mansiysk,61.0042,69.0019,7.06,100,100,2.0,RU,2023-10-03 22:56:14
79,Santa Terezinha,-29.9002,-50.0904,17.06,84,100,5.92,BR,2023-10-03 22:56:15
80,Swakopmund,-22.6833,14.5333,12.77,90,42,1.34,NA,2023-10-03 22:56:15
81,George Town,5.4112,100.3354,25.28,94,20,1.54,MY,2023-10-03 22:56:15
82,Am Timan,11.0297,20.2827,22.17,93,100,3.62,TD,2023-10-03 22:56:15
83,Ebon,4.582,168.6964,29.29,70,81,3.33,MH,2023-10-03 22:56:15
84,San Pedro Pochutla,15.7333,-96.4667,29.2,72,94,2.69,MX,2023-10-03 22:56:15
85,Lihue,21.9789,-159.3672,28.38,67,0,5.14,US,2023-10-03 22:56:15
86,Daru,-9.0763,143.2092,26.87,74,83,4.34,PG,2023-10-03 22:56:15
87,Udachny,66.4167,112.4,-3.64,85,100,7.44,RU,2023-10-03 22:56:15
88,Punta Arenas,-53.15,-70.9167,8.06,66,20,4.63,CL,2023-10-03 22:56:16
89,Nagqu Prefecture,31.5,92.0,1.76,84,4,2.24,CN,2023-10-03 22:56:16
90,Anna Regina,7.2644,-58.5077,28.22,78,99,5.01,GY,2023-10-03 22:56:16
91,Leona Vicario,20.9667,-87.1917,25.93,89,79,1.74,MX,2023-10-03 22:56:16
92,Kamwenge,0.1866,30.4539,17.94,55,62,0.7,UG,2023-10-03 22:56:16
93,Vorkuta,67.5,64.0,-0.03,92,86,3.19,RU,2023-10-03 22:56:16
94,Pāthardi,19.1667,75.1833,22.7,82,82,2.54,IN,2023-10-03 22:56:16
95,Novovyazniki,56.1975,42.1711,10.97,62,100,5.59,RU,2023-10-03 22:56:16
96,Tokār,18.4254,37.729,29.23,73,3,3.55,SD,2023-10-03 22:56:16
97,Fort Bragg,35.139,-79.006,25.3,60,0,3.09,US,2023-10-03 22:56:16
98,Aitape,-3.1374,142.3475,26.3,85,94,0.9,PG,2023-10-03 22:56:17
99,Manavālakurichi,8.1333,77.3,25.32,89,68,3.84,IN,2023-10-03 22:56:17
100,Menongue,-14.6585,17.691,19.06,28,82,2.05,AO,2023-10-03 22:56:17
101,Krasnaya Yaruga,50.8008,35.6583,8.71,67,22,3.37,RU,2023-10-03 22:56:17
102,Kingston,17.997,-76.7936,28.05,81,75,4.12,JM,2023-10-03 22:56:17
103,Ilulissat,69.2167,-51.1,-0.99,51,17,2.57,GL,2023-10-03 22:56:17
104,Lakatoro,-16.0999,167.4164,26.09,76,64,6.68,VU,2023-10-03 22:56:17
105,Tiksi,71.6872,128.8694,-3.19,96,100,2.52,RU,2023-10-03 22:56:17
106,Dwārka,22.2394,68.9678,26.26,72,5,4.25,IN,2023-10-03 22:56:17
107,Bikenibeu Village,1.3673,173.1241,29.98,74,40,3.09,KI,2023-10-03 22:56:18
108,La Ronge,55.1001,-105.2842,11.14,76,100,4.12,CA,2023-10-03 22:56:18
109,Keflavik,64.0049,-22.5624,6.24,75,20,2.06,IS,2023-10-03 22:56:18
110,Ketchikan,55.3422,-131.6461,12.26,94,100,4.63,US,2023-10-03 22:56:18
111,Stanley,54.868,-1.6985,10.02,85,20,4.63,GB,2023-10-03 22:56:18
112,Copiapó,-27.3667,-70.3333,14.83,55,82,1.95,CL,2023-10-03 22:49:27
113,Sinabang,2.4803,96.3801,26.19,83,100,3.78,ID,2023-10-03 22:56:18
114,San Luis,-33.295,-66.3356,9.84,78,62,5.26,AR,2023-10-03 22:51:48
115,Port Elizabeth,-33.918,25.5701,17.28,87,75,2.68,ZA,2023-10-03 22:56:18
116,Guangyuan,32.442,105.823,17.24,91,100,2.23,CN,2023-10-03 22:56:18
117,Touros,-5.1989,-35.4608,25.8,70,38,6.77,BR,2023-10-03 22:56:18
118,Richmond,37.5538,-77.4603,22.67,77,80,2.41,US,2023-10-03 22:54:00
119,Nemuro,43.3236,145.575,14.14,71,100,1.1,JP,2023-10-03 22:56:19
120,Naryan-Mar,67.6713,53.087,3.95,78,100,9.39,RU,2023-10-03 22:56:19
121,Howrah,22.5892,88.3103,26.0,94,100,3.09,IN,2023-10-03 22:56:19
122,Novodvinsk,64.4165,40.8122,6.55,79,100,2.41,RU,2023-10-03 22:56:19
123,Blackmans Bay,-43.0167,147.3167,11.49,69,100,2.38,AU,2023-10-03 22:56:19
124,Rosarito,32.3333,-117.0333,23.54,66,3,4.43,MX,2023-10-03 22:52:19
125,Ancud,-41.8697,-73.8203,8.48,83,27,1.93,CL,2023-10-03 22:56:20
126,Magdagachi,53.45,125.8,1.84,81,100,3.59,RU,2023-10-03 22:56:20
127,Kununurra,-15.7667,128.7333,27.99,69,82,1.54,AU,2023-10-03 22:56:20
128,Pisco,-13.7,-76.2167,20.03,77,0,8.75,PE,2023-10-03 22:55:02
129,Papao,-17.75,-149.55,28.82,83,9,10.08,PF,2023-10-03 22:56:20
130,Newport,51.5877,-2.9984,13.3,89,100,5.25,GB,2023-10-03 22:51:26
131,Itamaracá,-7.7478,-34.8256,27.03,66,53,4.29,BR,2023-10-03 22:56:20
132,Geraldton,-28.7667,114.6,8.23,87,0,3.6,AU,2023-10-03 22:56:20
133,Isafjordur,66.0755,-23.124,3.67,95,100,6.8,IS,2023-10-03 22:56:20
134,Whitehorse,60.7161,-135.0538,3.19,81,75,4.12,CA,2023-10-03 22:56:20
135,Santana,-0.0583,-51.1817,31.1,62,20,5.14,BR,2023-10-03 22:54:10
136,Sisimiut,66.9395,-53.6735,0.63,75,44,3.59,GL,2023-10-03 22:56:21
137,East London,-33.0153,27.9116,18.32,78,29,2.53,ZA,2023-10-03 22:56:21
138,Tindouf,27.6711,-8.1474,27.25,21,0,1.54,DZ,2023-10-03 22:56:21
139,Selfoss,63.9331,-20.9971,6.69,87,100,3.65,IS,2023-10-03 22:56:21
140,Sharlyk,52.9167,54.75,14.31,60,100,2.7,RU,2023-10-03 22:56:21
141,Mili,6.0815,171.735,28.51,78,69,3.49,MH,2023-10-03 22:56:21
142,Edinburgh of the Seven Seas,-37.0676,-12.3116,10.29,66,92,6.3,SH,2023-10-03 22:56:21
143,Carboneras,37.0015,-1.9213,21.28,85,98,3.97,ES,2023-10-03 22:56:21
144,Vadsø,70.0744,29.7487,2.09,80,75,3.09,NO,2023-10-03 22:56:21
145,Macao,22.2006,113.5461,27.85,89,0,1.03,MO,2023-10-03 22:52:05
146,Hawaiian Paradise Park,19.5933,-154.9731,28.11,74,0,6.69,US,2023-10-03 22:56:22
147,Turgen,43.4006,77.5933,6.07,56,0,1.85,KZ,2023-10-03 22:56:22
148,Saint-Philippe,-21.3585,55.7679,21.77,89,97,6.71,RE,2023-10-03 22:56:22
149,Port Mathurin,-19.6833,63.4167,23.04,79,1,2.65,MU,2023-10-03 22:56:22
150,Howard Springs,-12.497,131.047,27.95,62,58,1.68,AU,2023-10-03 22:56:22
151,Lata,40.1629,-8.3327,18.29,85,97,0.57,PT,2023-10-03 22:56:22
152,Mhlume,-26.0333,31.85,18.47,59,0,1.71,SZ,2023-10-03 22:56:22
153,Yuzhno-Kurilsk,44.0306,145.8556,14.06,74,100,0.92,RU,2023-10-03 22:56:22
154,Cologne,50.9333,6.95,12.84,79,0,3.09,DE,2023-10-03 22:56:22
155,Lumut,4.2323,100.6298,27.01,83,20,1.03,MY,2023-10-03 22:56:23
156,Mahina,-17.5065,-149.489,28.87,70,20,4.63,PF,2023-10-03 22:56:23
157,Tāfuna,-14.3358,-170.72,30.97,79,40,6.17,AS,2023-10-03 22:56:23
158,Dolinsk,47.35,142.8,12.21,74,14,1.83,RU,2023-10-03 22:56:23
159,Ha Tinh,18.3333,105.9,25.14,93,35,0.9,VN,2023-10-03 22:56:23
160,Guerrero Negro,27.9769,-114.0611,22.96,58,45,5.29,MX,2023-10-03 22:56:23
161,Zaozërsk,69.4005,32.4476,2.75,81,100,1.37,RU,2023-10-03 22:56:23
162,El Calafate,-50.3408,-72.2768,6.91,80,17,3.85,AR,2023-10-03 22:56:23
163,Kailua-Kona,19.6406,-155.9956,28.89,68,75,5.14,US,2023-10-03 22:56:23
164,Nueva Gerona,21.8833,-82.8,29.51,70,6,5.86,CU,2023-10-03 22:56:24
165,Khandyga,62.6667,135.6,4.73,96,100,1.49,RU,2023-10-03 22:56:24
166,Hotan,37.0997,79.9269,16.85,22,82,2.02,CN,2023-10-03 22:56:24
167,Kiliya,45.4552,29.2637,12.75,74,2,3.36,UA,2023-10-03 22:56:24
168,Aykhal,66.0,111.5,-4.47,95,100,5.14,RU,2023-10-03 22:56:24
169,Tazovsky,67.4667,78.7,0.16,86,14,6.18,RU,2023-10-03 22:56:24
170,Bamboo Flat,11.7,92.7167,25.05,94,75,1.03,IN,2023-10-03 22:56:24
171,Katabu,-4.9333,122.5167,25.99,80,44,1.59,ID,2023-10-03 22:56:24
172,Northam,51.0333,-4.2167,14.08,87,69,6.11,GB,2023-10-03 22:56:24
173,Bāfq,31.6128,55.4107,24.97,26,1,2.54,IR,2023-10-03 22:56:24
174,Manacapuru,-3.2997,-60.6206,33.59,35,95,1.84,BR,2023-10-03 22:56:25
175,Tacuarembó,-31.7333,-55.9833,16.28,91,53,1.04,UY,2023-10-03 22:51:51
176,St. John's,47.5649,-52.7093,14.1,81,100,4.63,CA,2023-10-03 22:56:25
177,Mount Gambier,-37.8333,140.7667,10.51,79,58,1.6,AU,2023-10-03 22:54:46
178,Vilyuysk,63.7553,121.6247,-4.44,80,11,2.24,RU,2023-10-03 22:56:25
179,Fumel,44.4986,0.9651,16.55,73,100,2.01,FR,2023-10-03 22:56:25
180,Sitka,57.0531,-135.33,11.94,71,75,6.17,US,2023-10-03 22:56:25
181,Lompoc,34.6391,-120.4579,24.95,51,20,4.63,US,2023-10-03 22:56:25
182,Nova Viçosa,-17.8919,-39.3719,24.28,84,98,7.73,BR,2023-10-03 22:56:25
183,Shimoda,34.6667,138.95,18.39,94,100,5.95,JP,2023-10-03 22:56:26
184,Lā‘ie,21.6477,-157.9253,28.73,66,5,0.45,US,2023-10-03 22:56:26
185,Tsiombe,-25.3,45.4833,16.53,69,0,2.59,MG,2023-10-03 22:56:26
186,Lázaro Cárdenas,17.9583,-102.2,29.63,71,89,3.38,MX,2023-10-03 22:56:26
187,Holualoa,19.6228,-155.9522,26.83,68,75,5.14,US,2023-10-03 22:56:26
188,Sal Rei,16.1833,-22.9167,27.12,78,4,1.69,CV,2023-10-03 22:56:26
189,Kavaratti,10.5669,72.642,27.05,77,88,2.29,IN,2023-10-03 22:56:26
190,Hamilton,39.1834,-84.5333,27.32,51,0,3.09,US,2023-10-03 22:56:24
191,Galliano,29.4422,-90.2992,28.87,61,100,3.6,US,2023-10-03 22:56:26
192,Kutum,14.2,24.6667,25.58,48,87,0.97,SD,2023-10-03 22:56:26
193,Tamanghasset,22.785,5.5228,23.95,38,40,2.06,DZ,2023-10-03 22:56:27
194,Buerarema,-14.9594,-39.2997,25.33,85,51,1.22,BR,2023-10-03 22:56:27
195,Mount Isa,-20.7333,139.5,24.87,33,37,7.2,AU,2023-10-03 22:56:27
196,Severoural'sk,60.1533,59.952,8.88,86,79,1.97,RU,2023-10-03 22:56:27
197,Nova Sintra,14.8667,-24.7167,23.49,78,5,1.78,CV,2023-10-03 22:56:27
198,Constitución,-35.3333,-72.4167,10.31,84,8,4.82,CL,2023-10-03 22:56:27
199,Kyshtovka,56.555,76.6271,10.19,74,100,2.68,RU,2023-10-03 22:56:27
200,Stutterheim,-32.5708,27.424,12.05,93,9,0.59,ZA,2023-10-03 22:56:27
201,Hell-Ville,-13.4,48.2667,25.81,71,65,0.68,MG,2023-10-03 22:54:21
202,Molochnoye,59.2917,39.6787,11.01,71,100,5.03,RU,2023-10-03 22:56:27
203,Ambon City,-3.6954,128.1814,28.26,95,75,1.03,ID,2023-10-03 22:56:28
204,Francisco Sá,-16.4758,-43.4883,22.08,47,93,0.66,BR,2023-10-03 22:56:28
205,Aasiaat,68.7098,-52.8699,-7.39,65,18,2.78,GL,2023-10-03 22:56:28
206,Susuman,62.7833,148.1667,-1.12,70,55,1.79,RU,2023-10-03 22:56:28
207,Bosaso,11.2842,49.1816,28.66,68,4,1.85,SO,2023-10-03 22:56:28
208,Carnarvon,-24.8667,113.6333,18.05,39,0,8.45,AU,2023-10-03 22:56:28
209,Esim,4.8699,-2.2405,25.03,89,76,3.36,GH,2023-10-03 22:56:28
210,Lerwick,60.1545,-1.1494,10.0,72,45,11.03,GB,2023-10-03 22:56:28
211,Zouérat,22.7187,-12.4521,33.48,15,23,4.4,MR,2023-10-03 22:56:28
212,Chernyshevskiy,63.0128,112.4714,-2.11,96,100,3.84,RU,2023-10-03 22:56:29
213,Visby,57.6409,18.296,12.12,87,75,10.8,SE,2023-10-03 22:56:29
214,Mossel Bay,-34.1831,22.146,15.96,84,100,6.69,ZA,2023-10-03 22:56:29
215,Queenstown,-31.8976,26.8753,15.18,78,1,1.8,ZA,2023-10-03 22:56:29
216,Mo i Rana,66.3128,14.1428,8.46,93,100,0.0,NO,2023-10-03 22:56:29
217,Poronaysk,49.2167,143.1167,8.49,82,14,1.46,RU,2023-10-03 22:52:51
218,Ilhéus,-14.7889,-39.0494,25.9,78,20,3.6,BR,2023-10-03 22:56:29
219,Bilibino,68.0546,166.4372,-11.8,93,77,1.3,RU,2023-10-03 22:56:29
220,Koumra,8.9126,17.5539,22.52,96,81,1.5,TD,2023-10-03 22:56:29
221,Nouadhibou,20.931,-17.0347,26.99,47,3,5.66,MR,2023-10-03 22:56:29
222,Camabatela,-8.1881,15.375,18.7,96,71,1.1,AO,2023-10-03 22:56:30
223,Pandan,14.0453,124.1694,28.14,79,98,3.94,PH,2023-10-03 22:56:30
224,Bardai,11.65,7.2333,22.46,79,96,2.59,NG,2023-10-03 22:56:30
225,Malatya Province,38.5,38.0,13.03,63,75,0.51,TR,2023-10-03 22:56:30
226,Kapit,2.0167,112.9333,24.18,91,100,0.39,MY,2023-10-03 22:56:30
227,Palikir,6.9248,158.1611,27.41,94,100,4.12,FM,2023-10-03 22:56:30
228,Stjørdalshalsen,63.4681,10.9262,6.02,93,100,1.03,NO,2023-10-03 22:56:30
229,Vilyuchinsk,52.9306,158.4028,8.85,78,94,2.58,RU,2023-10-03 22:56:30
230,Calvinia,-31.4707,19.776,18.81,35,50,1.38,ZA,2023-10-03 22:56:30
231,Mogocha,53.7333,119.7667,-1.25,75,7,2.68,RU,2023-10-03 22:56:30
232,Kirakira,-10.4544,161.9205,24.78,97,100,4.44,SB,2023-10-03 22:56:31
233,Zdvinsk,54.7021,78.661,5.98,58,64,2.37,RU,2023-10-03 22:56:31
234,Prince Rupert,54.3161,-130.3201,11.94,96,100,12.86,CA,2023-10-03 22:56:31
235,Pathein,16.7833,94.7333,24.86,94,100,1.51,MM,2023-10-03 22:56:31
236,Hithadhoo,-0.6,73.0833,27.55,80,66,5.4,MV,2023-10-03 22:56:31
237,Tôlanaro,-25.0319,46.9987,17.92,76,14,5.34,MG,2023-10-03 22:56:31
238,Egilsstadir,65.2653,-14.3948,4.95,93,100,6.17,IS,2023-10-03 22:56:31
239,Cabo San Lucas,22.8909,-109.9124,31.77,73,52,3.97,MX,2023-10-03 22:52:55
240,The Pas,53.8251,-101.2541,10.01,81,100,5.14,CA,2023-10-03 22:56:31
241,Plouzané,48.3833,-4.6167,10.52,97,75,2.57,FR,2023-10-03 22:56:32
242,Puerto Baquerizo Moreno,-0.9,-89.6,24.55,83,75,6.17,EC,2023-10-03 22:52:25
243,Longboat Key,27.4125,-82.659,28.99,55,0,3.6,US,2023-10-03 22:56:32
244,Boali,4.8005,18.1275,22.27,90,91,1.08,CF,2023-10-03 22:56:32
245,Gadzhiyevo,69.2551,33.3362,3.25,80,100,1.39,RU,2023-10-03 22:56:32
246,Puerto Ayora,-0.7393,-90.3518,23.64,92,70,1.79,EC,2023-10-03 22:56:32
247,Tofol,5.3248,163.0078,27.88,89,100,8.23,FM,2023-10-03 22:56:32
248,Beau Vallon,-20.4189,57.6953,23.13,88,75,0.51,MU,2023-10-03 22:56:32
249,Afaahiti,-17.75,-149.2833,27.93,84,16,8.4,PF,2023-10-03 22:56:32
250,Fortuna,40.5982,-124.1573,15.16,93,100,5.14,US,2023-10-03 22:56:32
251,Puerto Ayacucho,5.6639,-67.6236,26.22,87,99,1.5,VE,2023-10-03 22:56:33
252,Bathsheba,13.2167,-59.5167,29.34,84,40,5.66,BB,2023-10-03 22:56:33
253,Richards Bay,-28.783,32.0377,19.57,66,0,1.89,ZA,2023-10-03 22:56:33
254,Katsuren-haebaru,26.3369,127.8719,30.02,85,100,5.66,JP,2023-10-03 22:56:33
255,Mukalla,14.5425,49.1242,27.18,67,0,1.94,YE,2023-10-03 22:53:01
256,Mae Ramat,16.984,98.5166,25.18,99,100,0.34,TH,2023-10-03 22:56:33
257,El Sauzal de Rodríguez,31.9,-116.6833,21.9,74,1,4.05,MX,2023-10-03 22:56:33
258,Sawara,35.8833,140.5,19.17,98,75,3.6,JP,2023-10-03 22:56:33
259,Atafu Village,-8.5421,-172.5159,29.19,75,65,7.79,TK,2023-10-03 22:56:33
260,Río Gallegos,-51.6226,-69.2181,15.03,36,20,7.72,AR,2023-10-03 22:56:33
261,Province of Trapani,37.8333,12.6667,19.03,94,0,0.51,IT,2023-10-03 22:56:33
262,Barra de Santo Antônio,-9.4047,-35.5072,23.6,78,3,4.78,BR,2023-10-03 22:56:34
263,Malango,-2.9627,119.9001,20.79,92,68,0.45,ID,2023-10-03 22:56:34
264,Vorgashor,67.5833,63.95,-0.13,92,83,3.43,RU,2023-10-03 22:56:34
265,Ola,59.5833,151.2833,6.9,54,66,4.06,RU,2023-10-03 22:56:34
266,Hpa-An,16.8906,97.6333,23.95,97,98,0.53,MM,2023-10-03 22:56:34
267,Argos,37.6333,22.7333,17.1,64,0,1.43,GR,2023-10-03 22:56:34
268,Edgewater,28.9889,-80.9023,24.96,86,40,2.57,US,2023-10-03 22:56:34
269,Troitskoye,52.9821,84.6757,3.91,78,7,2.98,RU,2023-10-03 22:56:34
270,Lobujya,27.95,86.8167,1.64,99,100,2.54,NP,2023-10-03 22:56:34
271,Hengyang,26.8881,112.615,18.92,86,76,1.6,CN,2023-10-03 22:56:35
272,Den Burg,53.0542,4.7972,15.89,73,75,10.29,NL,2023-10-03 22:56:35
273,Gela,37.0803,14.2307,18.77,76,5,1.07,IT,2023-10-03 22:56:35
274,Utrik,11.2278,169.8474,28.47,76,55,8.12,MH,2023-10-03 22:56:35
275,Evergreen,39.6333,-105.3172,14.75,26,88,3.13,US,2023-10-03 22:56:35
276,Shakargarh,32.2623,75.1668,19.97,52,0,1.39,PK,2023-10-03 22:56:35
277,Veinticinco de Mayo,-35.4323,-60.1727,12.21,96,100,0.45,AR,2023-10-03 22:56:35
278,Kristinehamn,59.3098,14.1081,8.31,91,79,3.06,SE,2023-10-03 22:56:35
279,Orapa,-21.2833,25.3667,18.51,37,41,5.66,BW,2023-10-03 22:56:35
280,Fale old settlement,-9.3852,-171.2468,28.73,77,33,8.42,TK,2023-10-03 22:56:36
281,Tandil,-37.3217,-59.1332,12.05,77,100,4.8,AR,2023-10-03 22:55:59
282,Oamaru,-45.0784,170.9801,15.3,49,100,1.89,NZ,2023-10-03 22:56:36
283,Nizhneudinsk,54.9076,99.0276,2.79,84,15,1.34,RU,2023-10-03 22:56:36
284,Tidjikja,18.5564,-11.4271,33.9,18,76,3.99,MR,2023-10-03 22:56:36
285,La Passe,45.5549,-0.8967,14.13,77,57,3.65,FR,2023-10-03 22:56:36
286,Zhirnovsk,50.9845,44.7735,9.03,82,0,2.5,RU,2023-10-03 22:56:36
287,New Norfolk,-42.7826,147.0587,12.09,66,99,1.0,AU,2023-10-03 22:56:36
288,Vila Velha,-20.3297,-40.2925,22.75,92,100,3.09,BR,2023-10-03 22:55:08
289,Nyurba,63.2842,118.3319,-3.87,79,32,1.79,RU,2023-10-03 22:56:36
290,Viedma,-40.8135,-62.9967,9.31,67,100,3.01,AR,2023-10-03 22:56:37
291,Khorixas,-20.3667,14.9667,27.87,32,75,4.46,NA,2023-10-03 22:56:37
292,Fallon,39.4735,-118.7774,18.37,49,75,3.6,US,2023-10-03 22:56:37
293,Floriano,-6.7669,-43.0225,30.86,24,44,1.5,BR,2023-10-03 22:56:37
294,Santa María del Oro,25.9333,-105.3667,29.89,27,75,5.75,MX,2023-10-03 22:56:37
295,Labrador City,52.9463,-66.9114,5.95,61,40,2.57,CA,2023-10-03 22:56:37
296,Goz Beida,13.95,20.55,25.54,76,95,7.09,TD,2023-10-03 22:56:37
297,Wailua Homesteads,22.0669,-159.378,28.23,73,0,5.14,US,2023-10-03 22:56:37
298,Sotik Post,-0.7813,35.3416,13.14,75,19,2.43,KE,2023-10-03 22:56:37
299,Ugoofaaru,5.6667,73.0,26.82,84,100,8.25,MV,2023-10-03 22:56:38
300,Tingo María,-9.2895,-76.0088,23.48,91,99,0.73,PE,2023-10-03 22:56:38
301,Opp,31.2827,-86.2555,28.19,47,0,4.12,US,2023-10-03 22:56:19
302,Naze,28.3667,129.4833,24.51,85,36,3.09,JP,2023-10-03 22:56:38
303,Shakawe,-18.3667,21.85,21.5,32,92,2.77,BW,2023-10-03 22:56:38
304,Hood River,45.7054,-121.5215,20.06,62,0,3.13,US,2023-10-03 22:56:38
305,Flin Flon,54.7682,-101.865,9.91,81,100,3.09,CA,2023-10-03 22:56:38
306,Nantucket,41.2835,-70.0995,17.12,82,0,4.63,US,2023-10-03 22:54:58
307,Rome,43.2128,-75.4557,21.79,85,6,1.29,US,2023-10-03 22:55:03
308,Koné,-21.0595,164.8658,24.48,64,79,4.46,NC,2023-10-03 22:56:38
309,Coron,11.9986,120.2043,27.01,87,100,3.73,PH,2023-10-03 22:56:39
310,Anadyr,64.75,177.4833,1.67,64,20,6.0,RU,2023-10-03 22:56:39
311,North Bend,43.4065,-124.2243,16.65,88,100,6.17,US,2023-10-03 22:56:39
312,Kaiapoi,-43.3783,172.6401,16.24,56,70,4.63,NZ,2023-10-03 22:56:39
313,Bo`ka,40.8108,69.1986,15.79,25,6,1.56,UZ,2023-10-03 22:56:39
314,Ulsteinvik,62.3432,5.8487,10.95,91,99,6.71,NO,2023-10-03 22:56:39
315,Preobrazheniye,42.9019,133.9064,14.69,73,100,2.24,RU,2023-10-03 22:56:39
316,Mazagão,-0.115,-51.2894,31.03,66,97,4.1,BR,2023-10-03 22:56:39
317,Manokwari,-0.8667,134.0833,26.64,75,96,0.6,ID,2023-10-03 22:56:39
318,Pingzhuang,42.0372,119.2889,9.78,39,6,2.77,CN,2023-10-03 22:56:40
319,Yanykurgan,43.915,67.2481,14.29,39,55,3.16,KZ,2023-10-03 22:56:40
320,Chifeng,42.2683,118.9636,9.23,37,7,1.52,CN,2023-10-03 22:56:40
321,Hadibu,12.65,54.0333,26.35,81,2,0.99,YE,2023-10-03 22:56:40
322,Kargasok,59.0556,80.8572,6.65,96,88,2.24,RU,2023-10-03 22:56:40
323,Puerto Aisén,-45.4,-72.7,6.6,98,86,1.46,CL,2023-10-03 22:56:40
324,Fada,9.5667,8.3,20.19,90,96,1.06,NG,2023-10-03 22:56:40
325,Twin Falls,42.3505,-114.6445,13.43,72,100,7.2,US,2023-10-03 22:56:40
326,Wainwright,52.839,-110.8572,15.06,35,4,5.69,CA,2023-10-03 22:56:41
327,Brookings,44.3114,-96.7984,22.88,68,75,11.32,US,2023-10-03 22:56:21
328,Mumbwa,-14.9783,27.0619,20.26,48,10,4.41,ZM,2023-10-03 22:56:41
329,Chernolesskoye,44.7156,43.7133,17.0,82,89,0.33,RU,2023-10-03 22:56:41
330,Flying Fish Cove,-10.4217,105.6791,23.82,83,100,4.63,CX,2023-10-03 22:56:41
331,Chapecó,-27.0964,-52.6183,19.86,100,75,5.14,BR,2023-10-03 22:52:19
332,Vol'no-Nadezhdinskoye,43.3833,131.9917,14.16,100,40,1.0,RU,2023-10-03 22:56:41
333,San-Pédro,4.7485,-6.6363,24.19,88,19,2.65,CI,2023-10-03 22:56:41
334,Constanța,44.1833,28.65,11.38,67,3,3.61,RO,2023-10-03 22:56:41
335,Broken Hill,-31.95,141.4333,10.34,71,100,9.78,AU,2023-10-03 22:56:42
336,Luanda,-8.8368,13.2343,24.0,88,100,3.6,AO,2023-10-03 22:56:42
337,Torghay,49.6339,63.4981,10.48,40,15,2.2,KZ,2023-10-03 22:56:42
338,Toba Tek Singh,30.9743,72.4827,24.08,15,0,2.04,PK,2023-10-03 22:56:42
339,Bazarnyy Karabulak,52.2683,46.4144,8.61,79,2,2.65,RU,2023-10-03 22:56:42
340,Brigantine,39.4101,-74.3646,19.59,85,1,3.15,US,2023-10-03 22:54:01
341,Kalabo,-14.97,22.6814,24.64,26,96,4.24,ZM,2023-10-03 22:56:42
342,Harper,4.375,-7.7169,24.7,81,31,3.17,LR,2023-10-03 22:56:42
343,Cologne,50.9333,6.95,12.84,79,0,3.09,DE,2023-10-03 22:56:22
344,Itacaré,-14.2775,-38.9967,24.18,85,46,3.1,BR,2023-10-03 22:56:43
345,Jalai Nur,49.45,117.7,1.97,57,1,6.22,CN,2023-10-03 22:56:43
346,Bedwas,51.5918,-3.1989,13.07,90,89,0.89,GB,2023-10-03 22:56:43
347,Thompson,55.7435,-97.8558,9.09,93,100,1.54,CA,2023-10-03 22:52:56
348,Ampanihy,-24.7,44.75,16.2,65,0,2.66,MG,2023-10-03 22:56:43
349,Herat Province,34.5,62.0,20.51,24,55,2.76,AF,2023-10-03 22:56:43
350,Mirny,62.5353,113.9611,-4.31,92,100,4.02,RU,2023-10-03 22:54:20
351,Acaraú,-2.8856,-40.12,25.75,79,56,8.46,BR,2023-10-03 22:56:43
352,Santa Luzia,-19.7697,-43.8514,24.86,69,40,3.09,BR,2023-10-03 22:56:43
353,Callao,-12.0667,-77.15,20.16,73,40,5.66,PE,2023-10-03 22:56:43
354,Amherst,41.3978,-82.2224,24.49,69,0,3.8,US,2023-10-03 22:56:44
355,Serov,59.6033,60.5787,9.3,89,99,1.99,RU,2023-10-03 22:56:44
356,Kindu,-2.95,25.95,22.77,81,75,0.51,CD,2023-10-03 22:56:44
357,Sur,22.5667,59.5289,30.29,42,2,2.81,OM,2023-10-03 22:56:44
358,La Lira,20.4667,-100.15,24.21,47,94,4.87,MX,2023-10-03 22:56:44
359,Port Lincoln,-34.7333,135.8667,12.2,55,51,7.98,AU,2023-10-03 22:56:44
360,Shumikha,55.2261,63.2961,12.18,65,100,4.05,RU,2023-10-03 22:56:44
361,Saquarema,-22.92,-42.5103,22.08,91,65,3.23,BR,2023-10-03 22:55:48
362,Haiku-Pauwela,20.9219,-156.3051,28.01,58,20,4.63,US,2023-10-03 22:56:44
363,Kampong Speu,11.5,104.3333,23.75,95,66,1.17,KH,2023-10-03 22:56:45
364,Christchurch,-43.5333,172.6333,15.38,67,71,4.63,NZ,2023-10-03 22:52:11
365,Belyy Yar,53.6039,91.3903,-4.06,100,10,0.0,RU,2023-10-03 22:56:45
366,Ardakān,32.31,54.0175,24.51,29,3,1.76,IR,2023-10-03 22:56:45
367,Esens,53.6487,7.6127,12.54,92,35,5.14,DE,2023-10-03 22:56:45
368,Meget,52.415,104.0494,-0.62,92,23,1.32,RU,2023-10-03 22:56:45
369,Tirumullaivāsal,11.2333,79.8333,26.42,87,70,7.33,IN,2023-10-03 22:56:45
370,Gerāsh,27.6652,54.1371,25.51,40,0,0.36,IR,2023-10-03 22:56:45
371,Naxos,37.1056,25.3764,22.06,72,0,7.15,GR,2023-10-03 22:56:45
372,Natal,-5.795,-35.2094,26.12,78,20,4.63,BR,2023-10-03 22:53:38
373,Kruhlaye,54.2466,29.7957,15.68,65,100,7.92,BY,2023-10-03 22:56:46
374,Abra Pampa,-22.7205,-65.697,16.19,10,50,7.92,AR,2023-10-03 22:56:46
375,Quadrivio,45.0297,9.2223,19.01,78,14,1.38,IT,2023-10-03 22:56:46
376,Paradip,20.3167,86.6167,25.96,91,100,3.4,IN,2023-10-03 22:56:46
377,Iowa Falls,42.5225,-93.2513,27.01,28,40,8.75,US,2023-10-03 22:56:46
378,Alfaro,42.1803,-1.7502,19.25,77,6,5.13,ES,2023-10-03 22:56:46
379,Beli,7.8587,10.9719,23.41,94,84,0.69,NG,2023-10-03 22:56:46
380,Masterton,-40.9597,175.6575,11.05,47,2,1.33,NZ,2023-10-03 22:56:46
381,Güroymak,38.5774,42.0281,12.37,83,48,1.15,TR,2023-10-03 22:56:46
382,Hasaki,35.7333,140.8333,18.22,63,100,6.58,JP,2023-10-03 22:56:47
383,Ilek,51.5271,53.3831,14.58,75,100,3.46,RU,2023-10-03 22:56:47
384,Dzhalagash,45.0833,64.6667,13.49,52,18,3.64,KZ,2023-10-03 22:56:47
385,Popondetta,-8.7537,148.2534,29.88,63,22,0.62,PG,2023-10-03 22:56:47
386,Inírida,3.8653,-67.9239,28.35,64,90,0.71,CO,2023-10-03 22:56:47
387,Oyama,36.3,139.8,19.64,87,100,3.31,JP,2023-10-03 22:56:47
388,Severo-Yeniseyskiy,60.3725,93.0408,3.65,97,100,4.92,RU,2023-10-03 22:56:47
389,Ghormach,35.7306,63.7826,20.2,22,30,1.89,AF,2023-10-03 22:56:47
390,Bandar Lampung,-5.4254,105.258,22.69,94,85,1.79,ID,2023-10-03 22:56:47
391,Kaleke Mandi,31.9772,73.6026,22.77,28,0,1.21,PK,2023-10-03 22:56:48
392,Marsá Maţrūḩ,31.3525,27.2453,25.11,65,40,5.14,EG,2023-10-03 22:56:48
393,Livny,52.4253,37.6069,8.12,75,43,3.57,RU,2023-10-03 22:56:48
394,San Pedro de Ycuamandiyú,-24.0917,-57.0764,36.04,28,64,3.05,PY,2023-10-03 22:56:48
395,Taoudenni,22.6783,-3.9836,32.62,17,1,6.88,ML,2023-10-03 22:56:48
396,Kaa-Khem,51.6833,94.7333,4.11,52,1,2.08,RU,2023-10-03 22:56:48
397,Isla Mujeres,21.2311,-86.731,25.65,80,76,5.17,MX,2023-10-03 22:56:48
398,Antalaha,-14.9003,50.2788,20.65,83,12,3.06,MG,2023-10-03 22:56:48
399,Sheridan,44.8333,-106.9173,11.3,77,75,8.75,US,2023-10-03 22:56:49
400,Liesveld,51.9325,4.8319,14.62,83,24,3.58,NL,2023-10-03 22:56:49
401,Kayangel,8.0823,134.7173,25.39,83,100,2.51,PW,2023-10-03 22:56:49
402,Chopinzinho,-25.8558,-52.5233,20.32,92,89,3.41,BR,2023-10-03 22:56:49
403,Pitimbu,-7.4706,-34.8086,26.33,64,63,5.05,BR,2023-10-03 22:56:49
404,Homer,59.6425,-151.5483,8.89,48,0,3.09,US,2023-10-03 22:56:49
405,Tosontsengel,48.7567,98.2839,-1.29,51,0,0.77,MN,2023-10-03 22:56:49
406,Reçani,31.2846,-4.2688,26.18,26,19,1.23,MA,2023-10-03 22:55:21
407,Vernon,50.2581,-119.2691,19.88,48,27,1.03,CA,2023-10-03 22:56:37
408,Paphos,34.7667,32.4167,20.88,78,3,4.12,CY,2023-10-03 22:56:49
409,Pavlogradka,54.2024,73.5592,8.22,45,95,3.19,RU,2023-10-03 22:56:50
410,Uzhur,55.3036,89.8339,2.94,73,2,1.47,RU,2023-10-03 22:56:50
411,Benton Harbor,42.1167,-86.4542,28.13,45,0,3.09,US,2023-10-03 22:52:40
412,Ali Sabih,11.1558,42.7125,24.41,66,0,3.11,DJ,2023-10-03 22:56:50
413,Guácimo,10.2104,-83.6807,30.04,94,93,0.38,CR,2023-10-03 22:56:50
414,Kwang Binh,17.4833,106.6,26.1,89,100,1.15,VN,2023-10-03 22:56:50
415,Akjoujt,19.6969,-14.4164,35.13,12,97,2.97,MR,2023-10-03 22:56:50
416,Ryōtsu-minato,38.0833,138.4333,18.66,76,95,5.1,JP,2023-10-03 22:56:50
417,Arrondissement de Romorantin-Lanthenay,47.4167,1.8333,6.17,100,0,0.0,FR,2023-10-03 22:56:50
418,Imbituba,-28.24,-48.6703,16.81,87,78,3.54,BR,2023-10-03 22:56:50
419,Benjamin Constant,-4.3831,-70.0311,31.03,66,0,1.54,BR,2023-10-03 22:56:51
420,Oodweyne,9.4092,45.064,24.74,56,52,1.5,SO,2023-10-03 22:56:51
421,Ust'-Ilimsk,58.0006,102.6619,5.68,91,100,4.47,RU,2023-10-03 22:56:07
422,San Luis Río Colorado,32.4631,-114.7767,32.0,14,0,4.03,MX,2023-10-03 22:56:51
423,Magadan,59.5667,150.8,6.57,53,71,3.58,RU,2023-10-03 22:56:51
424,Ostrava,49.8346,18.282,18.15,79,75,8.23,CZ,2023-10-03 22:56:51
425,Saldanha,-33.0117,17.9442,14.98,88,100,2.38,ZA,2023-10-03 22:56:51
426,Bubaque,11.2833,-15.8333,27.98,80,100,4.12,GW,2023-10-03 22:56:51
427,Kiuruvesi,63.65,26.6167,6.53,95,100,0.87,FI,2023-10-03 22:56:51
428,Solwezi,-12.1688,26.3894,19.41,47,99,2.56,ZM,2023-10-03 22:56:52
429,Kapuskasing,49.4169,-82.4331,28.0,42,20,6.69,CA,2023-10-03 22:56:52
430,Polyarny,69.1989,33.4478,3.42,81,100,1.25,RU,2023-10-03 22:56:52
431,Mossamedes,-15.1961,12.1522,21.45,85,61,1.07,AO,2023-10-03 22:56:52
432,Urucará,-2.5364,-57.76,32.36,37,87,1.77,BR,2023-10-03 22:56:52
433,Weleri,-6.9713,110.0666,26.94,74,94,0.9,ID,2023-10-03 22:56:52
434,Degerfors,59.238,14.4308,8.6,97,90,2.08,SE,2023-10-03 22:56:52
435,Crane,31.3974,-102.3501,22.34,70,44,10.78,US,2023-10-03 22:56:52
436,Necochea,-38.5473,-58.7368,9.62,91,100,3.21,AR,2023-10-03 22:56:52
437,Laguna,38.421,-121.4238,28.61,29,0,3.6,US,2023-10-03 22:56:53
438,Sosnogorsk,63.6023,53.8817,5.86,57,100,0.45,RU,2023-10-03 22:56:53
439,Tvøroyri,61.5556,-6.8111,9.37,75,69,4.14,FO,2023-10-03 22:56:53
440,Seaside,36.6111,-121.8516,18.33,76,0,3.6,US,2023-10-03 22:53:40
441,Las Anod,8.4774,47.3597,24.3,74,31,7.04,SO,2023-10-03 22:56:53
442,Ezhou,30.4,114.8333,20.22,92,100,0.4,CN,2023-10-03 22:56:53
443,Spišská Nová Ves,48.9446,20.5615,12.9,80,73,2.59,SK,2023-10-03 22:56:53
444,Ulanhot,46.0833,122.0833,7.98,39,41,9.76,CN,2023-10-03 22:56:53
445,Kalix,65.853,23.1565,8.76,90,100,3.56,SE,2023-10-03 22:56:53
446,Najrān,17.4924,44.1277,23.36,22,0,0.57,SA,2023-10-03 22:56:54
447,Usinsk,65.9939,57.5281,1.71,85,97,4.47,RU,2023-10-03 22:56:54
448,Westport,41.1415,-73.3579,21.84,77,0,1.54,US,2023-10-03 22:56:51
449,Okhotsk,59.3833,143.3,6.74,59,99,1.13,RU,2023-10-03 22:56:54
450,Nicoya,10.1483,-85.452,26.04,90,100,1.93,CR,2023-10-03 22:56:54
451,Kiama,-34.6833,150.8667,21.27,66,100,3.58,AU,2023-10-03 22:56:54
452,San Miguel de Cozumel,20.5083,-86.9458,28.62,90,75,2.06,MX,2023-10-03 22:55:44
453,Key Largo,25.0865,-80.4473,28.33,65,14,8.56,US,2023-10-03 22:56:54
454,Bamako,12.65,-8.0,25.23,94,20,0.51,ML,2023-10-03 22:56:54
455,Gonābād,34.3529,58.6837,22.23,29,45,3.08,IR,2023-10-03 22:56:54
456,Brisas de Zicatela,15.8369,-97.0419,29.08,80,90,2.72,MX,2023-10-03 22:56:55
457,Coahuayana de Hidalgo,18.7,-103.6583,29.13,77,100,1.65,MX,2023-10-03 22:56:55
458,Namsos,64.4662,11.4957,6.95,93,100,2.06,NO,2023-10-03 22:56:55
459,Lewistown,40.5992,-77.5714,23.59,73,0,0.0,US,2023-10-03 22:56:55
460,Xigazê,29.25,88.8833,9.05,58,14,1.3,CN,2023-10-03 22:56:55
461,Steinbach am Taunus,50.1667,8.5667,10.39,89,0,1.54,DE,2023-10-03 22:56:55
462,Darwin,-12.4611,130.8418,27.99,74,20,2.57,AU,2023-10-03 22:56:55
463,Santa Elena de Uairen,4.6167,-61.1333,24.06,65,92,1.71,VE,2023-10-03 22:56:55
464,Acapulco de Juárez,16.8634,-99.8901,29.64,74,100,3.98,MX,2023-10-03 22:52:20
465,Mount Pearl,47.5166,-52.7813,13.56,82,100,4.63,CA,2023-10-03 22:56:56
466,Orcopampa,-15.2661,-72.3417,12.4,44,48,3.24,PE,2023-10-03 22:56:56
467,Qurayyat,31.3318,37.3428,23.1,53,40,5.14,SA,2023-10-03 22:56:56
468,Lourdes,43.1,-0.05,17.67,88,100,2.06,FR,2023-10-03 22:56:56
469,Oranjemund,-28.55,16.4333,15.16,80,0,2.3,NA,2023-10-03 22:56:56
470,Ponta Delgada,37.7333,-25.6667,22.4,94,75,4.63,PT,2023-10-03 22:56:56
471,Tazacorte,28.629,-17.9293,23.54,83,0,5.14,ES,2023-10-03 22:56:56
472,Igarapé Miri,-1.975,-48.9597,28.27,71,97,3.67,BR,2023-10-03 22:56:56
473,Syktyvkar,61.6764,50.8099,6.73,93,75,4.02,RU,2023-10-03 22:56:57
474,Panacan,9.2463,118.4082,27.15,77,81,2.65,PH,2023-10-03 22:56:57
475,Lashio,22.9333,97.75,19.98,100,76,0.04,MM,2023-10-03 22:56:57
476,Huangmei,30.1924,116.025,19.8,90,98,1.88,CN,2023-10-03 22:56:57
477,Kruisfontein,-34.0033,24.7314,16.6,88,65,2.01,ZA,2023-10-03 22:56:57
478,Boguchany,58.3814,97.4531,8.25,83,100,3.58,RU,2023-10-03 22:56:57
479,Bovalino,38.149,16.174,20.17,61,2,2.88,IT,2023-10-03 22:56:57
480,Bull Savanna,17.8868,-77.5902,27.1,81,83,1.26,JM,2023-10-03 22:56:57
481,Tralee,52.2704,-9.7026,11.81,91,89,3.7,IE,2023-10-03 22:52:07
482,São João do Piauí,-8.3581,-42.2467,31.31,28,14,1.86,BR,2023-10-03 22:53:20
483,Belmonte,-15.8631,-38.8828,24.97,77,93,6.01,BR,2023-10-03 22:52:18
484,Catherinas Lust,6.4,-57.6,28.03,82,72,5.91,GY,2023-10-03 22:56:58
485,Bentong Town,3.5167,101.9,24.85,96,72,0.74,MY,2023-10-03 22:56:58
486,Garachiko,28.7781,-17.7646,22.06,83,0,5.14,ES,2023-10-03 22:56:58
487,Thames,-37.1333,175.5333,14.33,52,0,1.3,NZ,2023-10-03 22:56:58
488,As Samawah,31.332,45.2944,29.48,34,95,5.12,IQ,2023-10-03 22:56:58
489,Nuuk,64.1835,-51.7216,3.82,75,59,3.58,GL,2023-10-03 22:56:58
490,Beyneu,45.3167,55.2,16.39,49,98,4.01,KZ,2023-10-03 22:56:58
491,Port Blair,11.6667,92.75,25.02,94,75,1.03,IN,2023-10-03 22:56:58
492,Ta`ū,-14.2336,-169.5144,26.84,81,61,7.88,AS,2023-10-03 22:56:58
493,Kuanda,56.3161,116.0806,-2.07,70,85,0.76,RU,2023-10-03 22:56:59
494,Peace River,56.2501,-117.286,16.17,41,75,7.2,CA,2023-10-03 22:56:59
495,Santa Ana,33.7456,-117.8678,26.91,51,0,5.14,US,2023-10-03 22:45:54
496,Mapimí,25.8167,-103.85,27.19,47,87,1.81,MX,2023-10-03 22:56:59
497,Palmer,42.1584,-72.3287,20.98,76,0,0.87,US,2023-10-03 22:56:59
498,Bayjī,34.9311,43.487,25.09,44,100,1.26,IQ,2023-10-03 22:52:12
499,Umluj,25.0213,37.2685,28.72,67,0,3.71,SA,2023-10-03 22:56:59
500,Cockburn Town,21.4612,-71.1419,28.97,78,97,6.72,TC,2023-10-03 22:56:59
501,Kodinsk,58.6881,99.1844,7.1,93,100,3.62,RU,2023-10-03 22:56:59
502,Kiunga,-6.1219,141.2906,23.32,99,100,0.94,PG,2023-10-03 22:56:59
503,Mamuju,-2.6748,118.8885,26.38,83,56,1.52,ID,2023-10-03 22:57:00
504,Saguenay,48.4168,-71.0657,17.16,84,75,3.09,CA,2023-10-03 22:56:27
505,Tual,-5.6667,132.75,26.34,83,67,6.2,ID,2023-10-03 22:57:00
506,Gagliano del Capo,39.8442,18.3695,20.68,88,0,1.54,IT,2023-10-03 22:54:37
507,Patrocínio,-18.9439,-46.9925,22.09,81,74,1.48,BR,2023-10-03 22:57:00
508,Bondoukou,8.0333,-2.8,22.53,97,100,2.35,CI,2023-10-03 22:57:00
509,Bodø,67.28,14.405,7.73,98,100,3.09,NO,2023-10-03 22:57:00
510,Balkanabat,39.5108,54.3671,21.66,36,60,2.0,TM,2023-10-03 22:57:00
511,Novoagansk,61.9449,76.6625,5.61,81,86,2.8,RU,2023-10-03 22:57:00
512,Ikovka,55.6089,64.9375,11.7,75,100,2.87,RU,2023-10-03 22:57:00
513,Itoman,26.1247,127.6694,27.42,92,75,5.66,JP,2023-10-03 22:57:01
514,La Mira,18.035,-102.3266,29.53,72,92,3.35,MX,2023-10-03 22:57:01
515,De Haan,51.272,3.0429,13.73,66,20,9.26,BE,2023-10-03 22:57:01
516,Tromsø,69.6496,18.957,3.01,87,75,2.06,NO,2023-10-03 22:57:01
517,San Julián,21.0167,-102.1667,22.49,49,97,2.62,MX,2023-10-03 22:57:01
518,Cam Ranh,11.9214,109.1591,25.98,89,40,0.51,VN,2023-10-03 22:57:01
519,Gamay,12.3854,125.2979,27.78,81,99,1.68,PH,2023-10-03 22:57:01
520,Sarmiento,-45.5882,-69.07,12.99,39,11,4.11,AR,2023-10-03 22:57:02
521,Harstad,68.799,16.5293,4.42,98,100,6.71,NO,2023-10-03 22:57:02
522,Isokyrö,63.0117,22.3333,5.9,95,100,1.69,FI,2023-10-03 22:57:02
523,Melfi,40.9965,15.6514,14.72,55,34,2.53,IT,2023-10-03 22:57:02
524,Qianjiang,30.4151,112.8859,19.17,84,100,2.13,CN,2023-10-03 22:57:02
525,Sovetskaya Gavan',48.9723,140.2878,10.61,60,48,1.12,RU,2023-10-03 22:57:02
526,Thānesar,29.9833,76.8167,20.64,52,0,1.37,IN,2023-10-03 22:57:02
527,Xuanzhou,30.9525,118.7553,18.68,93,100,2.32,CN,2023-10-03 22:57:02
528,Hobyo,5.3505,48.5268,25.97,88,46,7.04,SO,2023-10-03 22:57:02
529,Kill Devil Hills,36.0307,-75.676,20.67,79,0,3.09,US,2023-10-03 22:57:03
530,Sauðarkrokur,65.7461,-19.6394,4.25,91,99,1.96,IS,2023-10-03 22:57:03
531,Aginskoye,51.1,114.53,-1.51,77,3,4.88,RU,2023-10-03 22:57:03
532,Bengkulu,-3.8004,102.2655,22.59,94,100,1.63,ID,2023-10-03 22:57:03
533,Ké-Macina,13.9623,-5.3572,32.42,32,81,2.56,ML,2023-10-03 22:57:03
534,Arnö,60.1167,18.6333,12.1,93,100,4.14,SE,2023-10-03 22:57:03
535,Ariguaní,10.25,-74.0,24.89,94,100,2.48,CO,2023-10-03 22:57:03
536,Terrace,54.5163,-128.6035,10.95,93,100,7.2,CA,2023-10-03 22:57:03
537,Jingdezhen,29.2947,117.2079,20.91,89,100,1.28,CN,2023-10-03 22:57:03
538,Umiray,15.2206,121.4111,27.14,85,93,4.49,PH,2023-10-03 22:57:03
539,Gudaut'a,43.1055,40.6207,16.62,76,6,2.23,GE,2023-10-03 22:57:04
540,Mitú,1.1983,-70.1733,29.14,52,97,1.09,CO,2023-10-03 22:57:04
541,Igarka,67.4667,86.5833,-1.07,90,8,6.19,RU,2023-10-03 22:57:04
542,Piaçabuçu,-10.4056,-36.4344,24.6,80,12,5.3,BR,2023-10-03 22:53:19
543,Reggane,26.7158,0.1714,30.18,23,31,8.59,DZ,2023-10-03 22:56:48
544,Toliara,-23.35,43.6667,22.14,50,0,3.88,MG,2023-10-03 22:54:21
545,Remicourt,50.6807,5.3279,11.85,82,0,5.14,BE,2023-10-03 22:57:04
546,Kencong,-8.2833,113.3667,23.49,87,45,0.97,ID,2023-10-03 22:57:04
547,Alice Springs,-23.7,133.8833,16.75,19,0,6.69,AU,2023-10-03 22:57:04
548,Weno,7.4515,151.8468,29.97,79,40,2.57,FM,2023-10-03 22:57:04
549,Sam Roi Yot,12.2708,99.872,25.99,94,100,0.66,TH,2023-10-03 22:57:05
550,Sola,-13.8833,167.55,25.54,79,100,9.21,VU,2023-10-03 22:57:05
551,Detroit Lakes,46.8172,-95.8453,21.08,80,100,4.12,US,2023-10-03 22:57:02
552,Pangai,-19.8,-174.35,23.06,83,75,6.69,TO,2023-10-03 22:52:20
553,Ibiza Town,38.9088,1.433,22.93,87,0,1.79,ES,2023-10-03 22:52:17
554,Togur,58.3631,82.8265,10.08,78,98,4.02,RU,2023-10-03 22:57:05
555,Cooma,-36.2333,149.1333,15.5,66,100,4.57,AU,2023-10-03 22:57:05
556,Mogador,31.5125,-9.77,22.72,53,2,2.57,MA,2023-10-03 22:57:05
557,Miðvágur,62.0511,-7.1939,7.46,87,85,4.12,FO,2023-10-03 22:57:05
558,Okahao,-17.885,15.0667,26.16,32,57,3.17,NA,2023-10-03 22:57:05
559,Nevel'sk,46.6733,141.8633,13.06,69,66,2.76,RU,2023-10-03 22:57:05
560,Rio Grande,-32.035,-52.0986,17.75,93,81,5.43,BR,2023-10-03 22:54:03
561,Kuressaare,58.2481,22.5039,15.0,95,20,3.6,EE,2023-10-03 22:57:06
562,Laojunmiao,39.8333,97.7333,8.07,59,69,3.07,CN,2023-10-03 22:57:06
563,Macon,39.8667,-88.9668,29.12,37,0,5.66,US,2023-10-03 22:57:06
564,Auki,-8.7676,160.7034,28.1,78,74,2.22,SB,2023-10-03 22:57:06
565,Felipe Carrillo Puerto,19.5833,-88.05,28.02,78,92,2.22,MX,2023-10-03 22:57:06
566,Lib,8.3122,167.3766,28.73,79,66,7.87,MH,2023-10-03 22:57:06
567,Motul,21.1,-89.2833,31.0,69,35,3.6,MX,2023-10-03 22:57:06
568,Saint-Pierre,-21.3393,55.4781,21.82,88,100,4.63,RE,2023-10-03 22:57:06
569,Las Heras,-46.5419,-68.9359,12.51,36,7,4.59,AR,2023-10-03 22:57:07
570,Penkridge,52.7256,-2.1156,11.44,87,100,4.3,GB,2023-10-03 22:57:07
571,Urjala,61.0833,23.5333,8.96,93,100,3.84,FI,2023-10-03 22:57:07
572,Lexington,37.9887,-84.4777,28.27,37,0,1.54,US,2023-10-03 22:49:01
573,Opuwo,-18.0607,13.84,24.12,43,74,1.79,NA,2023-10-03 22:57:07
574,Taroa,8.7058,171.2275,28.36,80,48,7.77,MH,2023-10-03 22:57:07
575,Finisterra,42.9049,-9.2629,17.92,82,27,7.78,ES,2023-10-03 22:57:07
576,Chibougamau,49.9168,-74.3659,12.79,94,40,1.03,CA,2023-10-03 22:57:07
577,San Buenaventura,27.0833,-101.5333,35.03,35,18,5.71,MX,2023-10-03 22:57:07
578,Yamada,39.4667,141.95,17.15,72,100,1.23,JP,2023-10-03 22:57:07
579,Ivatsevichy,52.709,25.3401,17.19,56,98,7.26,BY,2023-10-03 22:57:08
580,Vilhena,-12.7406,-60.1458,22.12,100,75,2.06,BR,2023-10-03 22:57:08
581,Dilling,12.05,29.65,23.83,73,90,3.69,SD,2023-10-03 22:57:08
582,Hue,16.4667,107.6,26.06,94,75,1.54,VN,2023-10-03 22:57:08
583,Justo Daract,-33.8594,-65.1828,11.2,82,93,3.54,AR,2023-10-03 22:57:08
