City_ID,City,Lat,Lon,Temp,Humidity,Cloudiness,Wind Speed,Country,Date
0,Puerto Ayora,-0.7393,-90.3518,23.64,94,75,1.79,EC,2023-10-03 23:32:02
1,Ta`ū,-14.2336,-169.5144,26.77,81,57,7.59,AS,2023-10-03 23:32:03
2,Pakxan,18.3778,103.6601,24.51,95,43,0.97,LA,2023-10-03 23:32:03
3,Dandeli,15.2667,74.6167,20.8,98,98,1.22,IN,2023-10-03 23:32:03
4,Kharkhorin,47.1975,102.8238,3.2,48,0,2.36,MN,2023-10-03 23:32:03
5,Port Elizabeth,-33.918,25.5701,17.28,87,75,4.12,ZA,2023-10-03 23:32:03
6,Znamenskoye,57.1281,73.8282,12.22,82,100,2.66,RU,2023-10-03 23:32:03
7,Tiksi,71.6872,128.8694,-2.83,95,100,2.59,RU,2023-10-03 23:32:03
8,Thompson,55.7435,-97.8558,8.09,100,100,2.57,CA,2023-10-03 23:30:11
9,Atafu Village,-8.5421,-172.5159,29.04,76,70,7.42,TK,2023-10-03 23:32:03
10,Lorengau,-2.0226,147.2712,25.94,88,100,3.28,PG,2023-10-03 23:32:04
11,Vadsø,70.0744,29.7487,2.09,80,100,2.57,NO,2023-10-03 23:32:04
12,Albany,42.6001,-73.9662,20.59,85,0,0.89,US,2023-10-03 23:28:12
13,Utrik,11.2278,169.8474,28.48,76,60,8.09,MH,2023-10-03 23:32:04
14,Ushuaia,-54.8,-68.3,8.81,53,20,4.63,AR,2023-10-03 23:32:04
15,Port-aux-Français,-49.35,70.2167,4.65,92,100,21.57,TF,2023-10-03 23:32:04
16,Blackmans Bay,-43.0167,147.3167,11.49,71,100,2.68,AU,2023-10-03 23:32:04
17,Ribeira Grande,38.5167,-28.7,21.54,93,93,3.13,PT,2023-10-03 23:32:04
18,Kill Devil Hills,36.0307,-75.676,20.52,80,0,3.09,US,2023-10-03 23:32:04
19,Aoulef,26.9667,1.0833,28.69,28,2,8.92,DZ,2023-10-03 23:32:04
20,Codrington,-38.2667,141.9667,13.49,58,61,3.37,AU,2023-10-03 23:32:05
21,Grytviken,-54.2811,-36.5092,0.62,80,100,1.83,GS,2023-10-03 23:32:05
22,Tongouson,5.0214,120.1328,28.5,73,32,3.0,PH,2023-10-03 23:32:05
23,Puerto Natales,-51.7236,-72.4875,4.56,93,33,3.09,CL,2023-10-03 23:32:05
24,Robinsonville,31.4677,-97.1147,30.9,50,0,5.14,US,2023-10-03 23:32:05
25,Likiep,9.8251,169.3107,28.68,79,16,7.83,MH,2023-10-03 23:32:05
26,Hermanus,-34.4187,19.2345,14.52,92,91,3.99,ZA,2023-10-03 23:32:05
27,Polyarny,69.1989,33.4478,3.33,81,100,1.13,RU,2023-10-03 23:32:05
28,Mālvan,16.0667,73.4667,25.31,84,89,1.67,IN,2023-10-03 23:32:06
29,Adamstown,-25.066,-130.1015,20.28,75,84,7.96,PN,2023-10-03 23:32:06
30,Keflavik,64.0049,-22.5624,6.24,75,20,2.06,IS,2023-10-03 23:32:06
31,Chabahar,25.2919,60.643,28.58,71,2,4.97,IR,2023-10-03 23:32:06
32,Noumea,-22.2763,166.4572,26.99,75,86,6.89,NC,2023-10-03 23:23:44
33,Anadyr,64.75,177.4833,0.56,80,40,7.0,RU,2023-10-03 23:32:06
34,Papatowai,-46.5619,169.4708,18.62,46,99,4.75,NZ,2023-10-03 23:32:06
35,Waitangi,-43.9535,-176.5597,10.46,75,88,2.24,NZ,2023-10-03 23:32:06
36,Karratha,-20.7377,116.8463,28.22,18,45,8.11,AU,2023-10-03 23:32:06
37,Fale old settlement,-9.3852,-171.2468,28.81,77,44,8.45,TK,2023-10-03 23:32:07
38,Alice Springs,-23.7,133.8833,16.75,20,0,7.72,AU,2023-10-03 23:31:13
39,Taoudenni,22.6783,-3.9836,31.81,18,1,6.77,ML,2023-10-03 23:32:07
40,Margaret River,-33.95,115.0667,14.02,68,97,1.93,AU,2023-10-03 23:32:07
41,Margate,51.3813,1.3862,11.84,80,83,1.34,GB,2023-10-03 23:32:07
42,Berezovyy,51.6667,135.7,8.0,77,76,1.54,RU,2023-10-03 23:32:07
43,Bikenibeu Village,1.3673,173.1241,29.98,74,40,3.09,KI,2023-10-03 23:32:07
44,Tanabe,33.7333,135.3667,22.56,94,75,2.06,JP,2023-10-03 23:32:07
45,Avarua,-21.2078,-159.775,26.03,65,75,8.23,CK,2023-10-03 23:27:20
46,Praia da Vitória,38.7333,-27.0667,21.14,94,75,4.79,PT,2023-10-03 23:32:08
47,Yellowknife,62.456,-114.3525,9.12,94,75,3.6,CA,2023-10-03 23:32:08
48,Sitka,57.0531,-135.33,11.94,71,75,7.2,US,2023-10-03 23:32:08
49,Hawaiian Paradise Park,19.5933,-154.9731,27.64,75,0,6.17,US,2023-10-03 23:32:08
50,Az Zawr,29.4425,48.2747,30.57,49,2,5.62,KW,2023-10-03 23:32:08
51,Kununurra,-15.7667,128.7333,28.99,65,82,2.57,AU,2023-10-03 23:32:08
52,Bredasdorp,-34.5322,20.0403,13.83,97,95,2.57,ZA,2023-10-03 23:32:08
53,Pocahontas,36.2615,-90.9712,28.15,43,0,4.12,US,2023-10-03 23:32:08
54,Drochia,48.035,27.8161,12.34,53,0,4.3,MD,2023-10-03 23:32:08
55,Valparaíso,-33.0393,-71.6273,13.13,76,0,7.2,CL,2023-10-03 23:27:46
56,College,64.8569,-147.8028,0.48,93,100,2.06,US,2023-10-03 23:32:09
57,Jamestown,42.097,-79.2353,22.66,68,0,2.57,US,2023-10-03 23:32:09
58,Sauðarkrokur,65.7461,-19.6394,4.26,87,99,1.8,IS,2023-10-03 23:32:09
59,Elliot Lake,46.3834,-82.6331,18.17,74,10,2.05,CA,2023-10-03 23:32:09
60,Fort Frances,48.5999,-93.4003,21.43,77,100,1.34,CA,2023-10-03 23:32:09
61,Alta,69.9689,23.2717,0.66,87,100,2.06,NO,2023-10-03 23:32:09
62,Arraial do Cabo,-22.9661,-42.0278,21.98,83,75,1.03,BR,2023-10-03 23:32:09
63,Itoman,26.1247,127.6694,27.25,94,75,6.17,JP,2023-10-03 23:32:09
64,Arroyito,-31.4202,-63.05,12.84,82,81,7.64,AR,2023-10-03 23:32:09
65,Khadyzhensk,44.4256,39.5319,14.73,96,26,0.43,RU,2023-10-03 23:32:10
66,Planeta Rica,8.4147,-75.5883,25.07,92,100,4.2,CO,2023-10-03 23:31:18
67,Ust-Nera,64.5667,143.2,-1.55,74,100,1.34,RU,2023-10-03 23:32:10
68,Florence,43.7667,11.25,18.19,80,20,1.03,IT,2023-10-03 23:27:50
69,Finisterra,42.9049,-9.2629,17.92,83,23,7.34,ES,2023-10-03 23:32:10
70,Nanping,26.645,118.1736,25.57,84,35,1.51,CN,2023-10-03 23:32:10
71,Hotan,37.0997,79.9269,16.57,23,83,2.15,CN,2023-10-03 23:32:10
72,Lihue,21.9789,-159.3672,27.87,63,40,4.63,US,2023-10-03 23:32:10
73,Constanța,44.1833,28.65,11.38,67,3,3.61,RO,2023-10-03 23:29:20
74,Mareeba,-17.0,145.4333,25.26,72,83,1.81,AU,2023-10-03 23:32:10
75,Flying Fish Cove,-10.4217,105.6791,23.82,83,100,5.66,CX,2023-10-03 23:27:41
76,Rémire-Montjoly,4.9167,-52.2667,28.02,83,20,2.06,GF,2023-10-03 23:32:11
77,Vilyuchinsk,52.9306,158.4028,8.85,75,90,2.56,RU,2023-10-03 23:32:11
78,Aitape,-3.1374,142.3475,25.91,87,95,0.97,PG,2023-10-03 23:32:11
79,Kapuskasing,49.4169,-82.4331,26.0,50,40,3.6,CA,2023-10-03 23:32:11
80,San Marcos Tlacoyalco,18.65,-97.5833,21.1,62,62,4.85,MX,2023-10-03 23:32:11
81,Tôlanaro,-25.0319,46.9987,17.42,79,15,5.05,MG,2023-10-03 23:32:11
82,George Town,5.4112,100.3354,25.28,94,20,1.03,MY,2023-10-03 23:32:11
83,Iqaluit,63.7506,-68.5145,0.39,86,100,8.23,CA,2023-10-03 23:29:25
84,Isafjordur,66.0755,-23.124,3.42,99,100,6.92,IS,2023-10-03 23:32:11
85,Phalia,32.4297,73.5775,22.28,33,0,1.86,PK,2023-10-03 23:32:12
86,Wailua Homesteads,22.0669,-159.378,27.59,73,40,4.63,US,2023-10-03 23:32:12
87,Udachny,66.4167,112.4,-3.64,85,100,6.97,RU,2023-10-03 23:32:12
88,Petropavlovsk-Kamchatskiy,53.0452,158.6483,8.15,85,75,6.71,RU,2023-10-03 23:32:12
89,Klyuchi,52.2667,79.1667,4.92,55,0,2.29,RU,2023-10-03 23:32:12
90,Uturoa,-16.7333,-151.4333,25.93,78,11,8.52,PF,2023-10-03 23:32:12
91,Cidreira,-30.1811,-50.2056,17.5,84,100,7.77,BR,2023-10-03 23:32:12
92,Temara,33.9287,-6.9066,19.17,96,40,0.0,MA,2023-10-03 23:30:13
93,Kisvárda,48.2167,22.0833,14.9,55,38,2.93,HU,2023-10-03 23:32:12
94,Onega,63.9061,38.1404,5.35,96,100,1.31,RU,2023-10-03 23:32:12
95,Mossel Bay,-34.1831,22.146,15.96,87,98,6.16,ZA,2023-10-03 23:32:13
96,Yeppoon,-23.1333,150.7333,23.88,68,20,5.89,AU,2023-10-03 23:32:13
97,Stanley,54.868,-1.6985,10.01,87,20,3.6,GB,2023-10-03 23:32:13
98,Ceelbuur,4.685,46.6176,25.99,79,80,5.49,SO,2023-10-03 23:32:13
99,Yichang,30.7144,111.2847,19.51,88,97,0.14,CN,2023-10-03 23:30:01
100,Sisimiut,66.9395,-53.6735,0.56,76,47,3.61,GL,2023-10-03 23:32:13
101,Brandon,27.9378,-82.2859,27.07,74,100,5.66,US,2023-10-03 23:32:13
102,Haiku-Pauwela,20.9219,-156.3051,30.01,55,40,5.14,US,2023-10-03 23:32:13
103,Coyhaique,-45.5752,-72.0662,9.97,53,40,2.06,CL,2023-10-03 23:32:13
104,Copiapó,-27.3667,-70.3333,12.83,55,82,1.95,CL,2023-10-03 23:29:28
105,West Island,-12.1568,96.8225,23.99,78,40,7.72,CC,2023-10-03 23:32:14
106,Buon Ma Thuot,12.6667,108.05,22.24,97,79,0.78,VN,2023-10-03 23:32:14
107,St. John's,47.5649,-52.7093,14.18,81,100,5.14,CA,2023-10-03 23:30:06
108,Ola,59.5833,151.2833,6.9,53,62,3.97,RU,2023-10-03 23:32:14
109,Pandan,14.0453,124.1694,29.22,73,99,4.08,PH,2023-10-03 23:32:14
110,Coari,-4.085,-63.1414,30.22,43,93,1.42,BR,2023-10-03 23:32:14
111,Calipatria,33.1256,-115.5142,31.59,21,0,1.68,US,2023-10-03 23:32:14
112,Jayapura,-2.5333,140.7,27.66,69,84,1.68,ID,2023-10-03 23:32:14
113,Walvis Bay,-22.9575,14.5053,12.53,94,24,5.66,NA,2023-10-03 23:32:15
114,Fruita,39.1589,-108.729,20.49,25,0,5.66,US,2023-10-03 23:32:15
115,Chibougamau,49.9168,-74.3659,10.79,100,0,1.54,CA,2023-10-03 23:32:15
116,Berdigestyakh,62.0989,126.6992,-2.62,84,100,1.79,RU,2023-10-03 23:32:15
117,Bethel,41.3712,-73.414,20.1,83,0,0.0,US,2023-10-03 23:32:15
118,Betio Village,1.358,172.9211,30.02,70,48,2.42,KI,2023-10-03 23:32:15
119,Portage la Prairie,49.9728,-98.2926,16.05,72,99,6.95,CA,2023-10-03 23:30:52
120,Ghat,24.9647,10.1728,26.63,35,60,3.49,LY,2023-10-03 23:32:15
121,Kailua-Kona,19.6406,-155.9956,28.53,70,75,4.63,US,2023-10-03 23:28:45
122,Vorgashor,67.5833,63.95,-0.04,90,85,3.28,RU,2023-10-03 23:32:16
123,Tofol,5.3248,163.0078,27.88,89,100,8.23,FM,2023-10-03 23:32:16
124,Tambura,5.6,27.4667,20.52,94,100,1.55,SS,2023-10-03 23:32:16
125,Bilibino,68.0546,166.4372,-11.14,91,72,1.21,RU,2023-10-03 23:32:16
126,Ad-Damazin,11.7891,34.3592,24.76,82,38,3.36,SD,2023-10-03 23:32:16
127,Brookings,44.3114,-96.7984,21.75,65,0,9.26,US,2023-10-03 23:32:16
128,Crawfordsville,40.0411,-86.8745,24.65,41,0,1.54,US,2023-10-03 23:31:20
129,Saint Croix,17.7397,-64.7388,26.09,89,75,6.17,VI,2023-10-03 23:32:16
130,Longyearbyen,78.2186,15.6401,-1.09,74,75,4.63,SJ,2023-10-03 23:32:16
131,Dunedin,-45.8742,170.5036,12.67,66,98,0.45,NZ,2023-10-03 23:32:17
132,Iskateley,67.6803,53.1512,3.9,78,100,9.39,RU,2023-10-03 23:32:17
133,Maksi,23.2667,76.15,20.0,70,84,3.59,IN,2023-10-03 23:32:17
134,Tekeli,44.83,78.8239,7.86,57,0,3.11,KZ,2023-10-03 23:32:17
135,Ilulissat,69.2167,-51.1,-1.99,59,15,0.0,GL,2023-10-03 23:32:17
136,Çukurca,37.2481,43.6136,13.06,74,64,1.37,TR,2023-10-03 23:32:17
137,Trairi,-3.2778,-39.2689,25.46,77,81,5.47,BR,2023-10-03 23:28:29
138,Kiunga,-6.1219,141.2906,24.0,98,100,0.74,PG,2023-10-03 23:32:17
139,San Julián,21.0167,-102.1667,20.35,60,97,0.9,MX,2023-10-03 23:32:17
140,Afaahiti,-17.75,-149.2833,26.93,84,17,8.39,PF,2023-10-03 23:32:18
141,Shelburne,44.0787,-80.2041,21.73,65,0,0.8,CA,2023-10-03 23:27:24
142,Urucará,-2.5364,-57.76,31.16,39,82,1.82,BR,2023-10-03 23:32:18
143,Manokwari,-0.8667,134.0833,26.86,75,96,1.25,ID,2023-10-03 23:32:18
144,Tazacorte,28.629,-17.9293,25.54,41,0,4.12,ES,2023-10-03 23:32:18
145,Sovetsk,55.0839,21.8785,13.35,87,100,8.75,RU,2023-10-03 23:32:18
146,Geraldton,-28.7667,114.6,10.23,81,0,4.63,AU,2023-10-03 23:30:28
147,Aleg,17.0481,-13.9209,33.09,31,24,5.72,MR,2023-10-03 23:32:18
148,Yarmouth,41.7057,-70.2286,17.72,88,0,3.09,US,2023-10-03 23:31:45
149,Port Mathurin,-19.6833,63.4167,23.01,79,3,2.74,MU,2023-10-03 23:32:18
150,Jinan,36.6683,116.9972,20.52,56,81,0.54,CN,2023-10-03 23:32:19
151,Invercargill,-46.4,168.35,19.45,57,90,4.47,NZ,2023-10-03 23:32:19
152,Caleta de Carquín,-11.0925,-77.6267,18.8,90,93,4.1,PE,2023-10-03 23:32:19
153,Angaur State,6.906,134.13,25.78,82,100,2.31,PW,2023-10-03 23:32:19
154,North Bend,43.4065,-124.2243,16.47,82,100,7.72,US,2023-10-03 23:32:19
155,Badger,64.8,-147.5333,0.63,94,100,2.06,US,2023-10-03 23:32:19
156,Ålesund,62.4723,6.1549,10.31,93,75,6.69,NO,2023-10-03 23:32:19
157,Fuling,29.7022,107.3919,20.52,97,100,0.97,CN,2023-10-03 23:32:19
158,Rongelap,11.1635,166.8941,28.81,78,98,7.61,MH,2023-10-03 23:32:19
159,Mossamedes,-15.1961,12.1522,22.24,80,68,2.03,AO,2023-10-03 23:32:20
160,Santa Ana,33.7456,-117.8678,26.64,51,0,4.12,US,2023-10-03 23:29:24
161,Naze,28.3667,129.4833,24.51,83,41,3.33,JP,2023-10-03 23:32:20
162,Las Palmas de Gran Canaria,28.0997,-15.4134,26.64,47,0,7.72,ES,2023-10-03 23:32:20
163,Yakeshi,49.2833,120.7333,3.59,53,97,6.96,CN,2023-10-03 23:32:20
164,Edinburgh of the Seven Seas,-37.0676,-12.3116,10.37,66,92,6.34,SH,2023-10-03 23:32:20
165,Coquimbo,-29.9533,-71.3436,14.85,77,20,6.17,CL,2023-10-03 23:23:17
166,Olonkinbyen,70.9221,-8.7187,0.58,60,100,5.61,SJ,2023-10-03 23:32:20
167,Deniliquin,-35.5333,144.9667,13.43,75,100,6.43,AU,2023-10-03 23:32:20
168,Sola,-13.8833,167.55,25.6,80,100,9.39,VU,2023-10-03 23:32:21
169,Mount Pearl,47.5166,-52.7813,13.64,81,100,5.14,CA,2023-10-03 23:32:21
170,Jaguarari,-10.2639,-40.1958,25.63,36,0,2.17,BR,2023-10-03 23:32:21
171,Anshun,26.25,105.9333,19.21,90,80,3.39,CN,2023-10-03 23:32:21
172,La Ronge,55.1001,-105.2842,10.14,81,75,3.6,CA,2023-10-03 23:32:21
173,Nuku'alofa,-21.1333,-175.2,25.19,69,75,6.69,TO,2023-10-03 23:32:21
174,Vorkuta,67.5,64.0,0.19,89,87,3.11,RU,2023-10-03 23:32:21
175,Leava,-14.3,-178.1667,26.55,83,87,10.81,WF,2023-10-03 23:32:21
176,Tindouf,27.6711,-8.1474,26.25,21,0,1.54,DZ,2023-10-03 23:32:21
177,Aizkraukle,56.6048,25.2553,18.0,71,100,7.34,LV,2023-10-03 23:32:21
178,Ouésso,1.6136,16.0517,22.65,90,68,0.58,CG,2023-10-03 23:32:22
179,Punta Arenas,-53.15,-70.9167,8.06,66,20,4.63,CL,2023-10-03 23:29:42
180,Erzincan Province,39.75,39.5,12.61,62,40,3.09,TR,2023-10-03 23:32:22
181,Belyy Yar,53.6039,91.3903,-4.06,93,20,0.0,RU,2023-10-03 23:32:22
182,San Antonio de Palé,-1.4014,5.6325,25.42,80,100,3.14,GQ,2023-10-03 23:32:22
183,Salies-de-Béarn,43.4742,-0.9245,17.27,92,98,0.56,FR,2023-10-03 23:32:22
184,Nyírbátor,47.8333,22.1333,14.24,56,23,3.31,HU,2023-10-03 23:32:22
185,Hadibu,12.65,54.0333,26.24,82,2,1.05,YE,2023-10-03 23:32:22
186,Whitehorse,60.7161,-135.0538,3.2,77,40,2.57,CA,2023-10-03 23:32:22
187,Cockburn Town,21.4612,-71.1419,28.88,79,100,6.8,TC,2023-10-03 23:31:01
188,Wajir,1.7471,40.0573,25.46,70,37,7.24,KE,2023-10-03 23:32:23
189,Vakarai,55.6035,23.8213,17.29,79,100,10.16,LT,2023-10-03 23:32:23
190,Ibshawāy,29.358,30.6814,23.43,64,69,3.46,EG,2023-10-03 23:32:23
191,Tual,-5.6667,132.75,26.36,84,65,6.55,ID,2023-10-03 23:32:23
192,Nagqu Prefecture,31.5,92.0,1.48,86,6,1.54,CN,2023-10-03 23:32:23
193,Rio do Sul,-27.2142,-49.6431,19.1,93,84,1.64,BR,2023-10-03 23:32:23
194,Hobyo,5.3505,48.5268,25.86,89,41,6.46,SO,2023-10-03 23:32:23
195,Izazi,-7.2,35.7333,21.55,44,95,1.44,TZ,2023-10-03 23:32:23
196,Golden Grove,-34.7833,138.7333,11.74,69,85,1.79,AU,2023-10-03 23:32:23
197,São João da Barra,-21.6403,-41.0511,23.05,93,73,2.12,BR,2023-10-03 23:32:24
198,Freetown,8.484,-13.2299,25.84,94,75,2.06,SL,2023-10-03 23:32:24
199,Paciran,-6.8767,112.3761,27.31,73,76,2.84,ID,2023-10-03 23:32:24
200,Bubaque,11.2833,-15.8333,28.04,79,100,4.2,GW,2023-10-03 23:32:24
201,Bamboo Flat,11.7,92.7167,25.05,94,75,1.03,IN,2023-10-03 23:32:24
202,São Miguel do Tapuio,-5.5036,-41.3233,30.14,31,55,4.0,BR,2023-10-03 23:32:24
203,Amahai,-3.3333,128.9167,27.61,78,84,0.49,ID,2023-10-03 23:32:24
204,Tanaina,61.6269,-149.4281,6.72,50,0,2.06,US,2023-10-03 23:32:25
205,Koné,-21.0595,164.8658,25.73,59,70,4.49,NC,2023-10-03 23:32:25
206,Khandyga,62.6667,135.6,4.64,94,100,1.89,RU,2023-10-03 23:32:25
207,Pakuranga,-36.8833,174.9167,16.17,62,0,5.66,NZ,2023-10-03 23:32:25
208,Zhangjiakou Shi Xuanhua Qu,40.6103,115.0447,13.27,51,50,3.75,CN,2023-10-03 23:32:25
209,Santa Terezinha,-29.9002,-50.0904,17.11,84,100,8.08,BR,2023-10-03 23:32:25
210,Béjaïa,36.7559,5.0843,20.6,78,0,2.06,DZ,2023-10-03 23:32:25
211,Carutapera,-1.195,-46.02,26.3,78,58,4.32,BR,2023-10-03 23:32:25
212,Rabo de Peixe,37.8,-25.5833,23.32,99,40,4.12,PT,2023-10-03 23:32:25
213,Tura,25.5198,90.2201,22.96,94,100,2.44,IN,2023-10-03 23:32:25
214,Aripuanã,-9.1667,-60.6333,28.02,57,69,1.05,BR,2023-10-03 23:32:26
215,Gadzhiyevo,69.2551,33.3362,3.11,81,100,1.26,RU,2023-10-03 23:32:26
216,Merizo Village,13.2658,144.6691,29.01,90,65,6.31,GU,2023-10-03 23:32:26
217,Colac,-38.3333,143.5833,11.02,49,10,3.24,AU,2023-10-03 23:32:26
218,Miðvágur,62.0511,-7.1939,8.46,87,20,5.14,FO,2023-10-03 23:32:26
219,Greymouth,-42.4667,171.2,9.3,84,53,1.39,NZ,2023-10-03 23:32:26
220,Maputo,-25.9653,32.5892,18.82,88,0,1.54,MZ,2023-10-03 23:30:47
221,Christchurch,-43.5333,172.6333,16.19,63,71,3.6,NZ,2023-10-03 23:28:06
222,Peniche,39.3558,-9.3811,18.61,94,100,4.65,PT,2023-10-03 23:32:26
223,Port Alfred,-33.5906,26.891,15.66,93,51,4.53,ZA,2023-10-03 23:32:27
224,Sassandra,4.95,-6.0833,23.62,92,23,2.47,CI,2023-10-03 23:32:27
225,Agadez,19.75,10.25,29.02,27,0,3.23,NE,2023-10-03 23:32:27
226,San Luis de la Loma,17.2706,-100.8939,29.14,78,60,2.99,MX,2023-10-03 23:32:27
227,Scarperia,43.992,11.3538,17.19,87,51,0.56,IT,2023-10-03 23:32:27
228,Saipan,15.1355,145.701,30.39,70,40,8.23,MP,2023-10-03 23:32:27
229,Abaeté,-19.16,-45.4458,22.85,84,72,2.57,BR,2023-10-03 23:32:27
230,Vila Velha,-20.3297,-40.2925,22.75,92,100,2.06,BR,2023-10-03 23:31:09
231,Pergamino,-33.89,-60.5736,12.68,92,99,3.86,AR,2023-10-03 23:32:27
232,Kavieng,-2.5744,150.7967,28.05,75,75,2.2,PG,2023-10-03 23:32:28
233,Mahon,39.8885,4.2658,21.31,94,0,2.57,ES,2023-10-03 23:32:28
234,Quesnel,52.9999,-122.5029,14.28,62,100,3.09,CA,2023-10-03 23:32:28
235,Bo`ka,40.8108,69.1986,15.27,26,6,2.01,UZ,2023-10-03 23:32:28
236,Puerto El Triunfo,13.2833,-88.55,30.48,82,100,0.81,SV,2023-10-03 23:32:28
237,Simpang,-1.2667,104.0833,25.61,80,86,2.1,ID,2023-10-03 23:32:28
238,Kamloops,50.6665,-120.3192,21.11,47,75,0.0,CA,2023-10-03 23:32:28
239,East Ballina,-28.8667,153.5833,23.22,66,80,8.89,AU,2023-10-03 23:32:28
240,Talnakh,69.4865,88.3972,0.67,95,100,6.86,RU,2023-10-03 23:32:28
241,Nantucket,41.2835,-70.0995,15.95,89,0,4.63,US,2023-10-03 23:32:29
242,Howard Springs,-12.497,131.047,27.95,52,60,1.32,AU,2023-10-03 23:32:29
243,Kingscliff,-28.2667,153.5667,22.84,73,75,8.75,AU,2023-10-03 23:32:29
244,Lebu,-37.6167,-73.65,8.96,77,6,4.29,CL,2023-10-03 23:32:29
245,Ust'-Kut,56.7938,105.7672,2.47,96,100,4.02,RU,2023-10-03 23:32:29
246,Bodø,67.28,14.405,7.73,98,75,3.6,NO,2023-10-03 23:32:29
247,Tarawa,1.419,172.984,30.05,74,40,3.09,KI,2023-10-03 23:32:29
248,Zouérat,22.7187,-12.4521,32.68,16,36,4.36,MR,2023-10-03 23:32:29
249,Shalqar,47.8333,59.6,13.51,49,100,3.0,KZ,2023-10-03 23:32:29
250,Belmonte,-15.8631,-38.8828,24.89,78,86,5.64,BR,2023-10-03 23:32:30
251,Saldanha,-33.0117,17.9442,15.1,87,100,1.97,ZA,2023-10-03 23:32:30
252,Aykhal,66.0,111.5,-4.41,95,100,4.92,RU,2023-10-03 23:32:30
253,Egilsstadir,65.2653,-14.3948,4.95,93,100,5.14,IS,2023-10-03 23:32:30
254,Pimenta Bueno,-11.6725,-61.1936,30.29,44,87,2.24,BR,2023-10-03 23:32:30
255,Langtoucun,40.0261,124.3286,16.28,86,61,2.64,CN,2023-10-03 23:32:30
256,San Patricio,28.017,-97.5169,30.9,70,57,4.8,US,2023-10-03 23:32:30
257,Castillos,-34.1667,-53.8333,15.6,94,100,3.31,UY,2023-10-03 23:32:30
258,Cole Harbour,44.6724,-63.4751,18.77,80,48,1.03,CA,2023-10-03 23:32:30
259,Kargasok,59.0556,80.8572,6.65,96,89,2.24,RU,2023-10-03 23:32:31
260,Minas de Marcona,-15.2119,-75.1103,13.54,90,85,6.29,PE,2023-10-03 23:32:31
261,Al Mishkhāb,31.8042,44.4911,27.06,41,100,3.9,IQ,2023-10-03 23:32:31
262,Palu,-0.8917,119.8707,27.92,80,48,1.05,ID,2023-10-03 23:31:22
263,Yuzhno-Kurilsk,44.0306,145.8556,14.1,73,100,0.86,RU,2023-10-03 23:32:31
264,Nuuk,64.1835,-51.7216,4.34,75,75,3.09,GL,2023-10-03 23:32:14
265,Rawai,7.7797,98.3253,26.06,82,100,6.81,TH,2023-10-03 23:32:31
266,Mirny,62.5353,113.9611,-4.31,92,100,4.02,RU,2023-10-03 23:32:31
267,Ancud,-41.8697,-73.8203,8.0,86,30,1.83,CL,2023-10-03 23:32:31
268,Gwadar,25.1216,62.3254,27.89,68,3,3.75,PK,2023-10-03 23:32:31
269,Aasiaat,68.7098,-52.8699,-7.35,65,19,2.76,GL,2023-10-03 23:32:32
270,Saint-Joseph,-21.3667,55.6167,20.21,89,91,6.35,RE,2023-10-03 23:32:32
271,City of San Pedro,14.35,121.0167,26.54,94,75,3.6,PH,2023-10-03 23:32:32
272,Xigazê,29.25,88.8833,8.72,60,15,1.0,CN,2023-10-03 23:32:32
273,Laguna,38.421,-121.4238,28.52,30,0,2.06,US,2023-10-03 23:31:00
274,Lamarque,-39.423,-65.7021,15.45,35,100,4.86,AR,2023-10-03 23:32:32
275,Mata-Utu,-13.2816,-176.1745,27.15,83,68,8.59,WF,2023-10-03 23:32:32
276,Hasaki,35.7333,140.8333,19.22,65,100,4.46,JP,2023-10-03 23:32:32
277,Banda Aceh,5.5577,95.3222,26.63,79,100,1.65,ID,2023-10-03 23:32:32
278,Wenling,28.3669,121.36,24.02,74,23,6.27,CN,2023-10-03 23:32:33
279,Gaspé,48.8334,-64.4819,9.12,81,75,3.09,CA,2023-10-03 23:32:33
280,Lázaro Cárdenas,17.9583,-102.2,28.85,75,85,2.33,MX,2023-10-03 23:32:33
281,Carnarvon,-24.8667,113.6333,20.05,35,0,8.69,AU,2023-10-03 23:32:33
282,Kukmor,56.1855,50.8944,9.6,90,44,2.79,RU,2023-10-03 23:32:33
283,Nehe,48.4833,124.8333,6.79,88,100,8.65,CN,2023-10-03 23:32:33
284,Yingkou,40.6648,122.2283,14.98,48,49,6.7,CN,2023-10-03 23:32:33
285,Alofi,-19.0595,-169.9187,24.94,78,100,9.26,NU,2023-10-03 23:32:33
286,Bida,9.0833,6.0167,23.97,93,100,1.3,NG,2023-10-03 23:32:33
287,Goondiwindi,-28.55,150.3167,25.99,33,0,10.67,AU,2023-10-03 23:32:34
288,Kiama,-34.6833,150.8667,21.27,66,100,3.58,AU,2023-10-03 23:32:34
289,Bintulu,3.1667,113.0333,25.51,100,20,0.0,MY,2023-10-03 23:32:34
290,Schweizer-Reneke,-27.1887,25.3293,17.46,39,1,4.07,ZA,2023-10-03 23:32:34
291,Beāwar,26.1,74.3167,22.48,47,3,4.08,IN,2023-10-03 23:32:34
292,Portland,45.5234,-122.6762,19.51,73,75,4.12,US,2023-10-03 23:26:58
293,Acaraú,-2.8856,-40.12,25.54,80,48,8.35,BR,2023-10-03 23:32:34
294,Lloydminster,53.2835,-110.0016,15.12,36,40,7.2,CA,2023-10-03 23:32:34
295,Greenland,43.0362,-70.8328,20.91,85,21,2.4,US,2023-10-03 23:32:35
296,Tangalle,6.024,80.7911,24.79,89,96,2.91,LK,2023-10-03 23:32:35
297,Yoko,5.5333,12.3167,18.47,98,66,0.7,CM,2023-10-03 23:32:35
298,Puerto Carreño,6.189,-67.4859,32.99,62,20,2.06,CO,2023-10-03 23:32:35
299,Nova Sintra,14.8667,-24.7167,23.52,78,5,1.62,CV,2023-10-03 23:32:35
300,Tsiombe,-25.3,45.4833,16.14,69,0,2.67,MG,2023-10-03 23:32:35
301,Shiozawa,37.0333,138.85,15.85,95,100,1.83,JP,2023-10-03 23:32:35
302,Turpan,42.9333,89.1667,21.0,28,13,0.88,CN,2023-10-03 23:32:35
303,Kristiansund,63.1115,7.732,9.36,87,100,4.63,NO,2023-10-03 23:32:35
304,Tejupilco de Hidalgo,18.9,-100.15,21.53,92,94,0.65,MX,2023-10-03 23:32:35
305,Provincie Zeeland,51.4167,3.75,15.29,77,75,11.32,NL,2023-10-03 23:27:59
306,Srinagar,34.0833,74.8167,11.78,52,0,0.27,IN,2023-10-03 23:32:36
307,Anapa,44.8908,37.3239,10.19,87,0,1.0,RU,2023-10-03 23:32:36
308,Pisco,-13.7,-76.2167,19.03,82,0,7.2,PE,2023-10-03 23:32:36
309,Broken Hill,-31.95,141.4333,10.9,64,100,10.39,AU,2023-10-03 23:31:35
310,Langarūd,37.197,50.1535,21.03,89,79,1.28,IR,2023-10-03 23:32:36
311,São Felipe,-14.8167,-41.3833,25.92,67,86,0.64,BR,2023-10-03 23:32:36
312,Ouallam,14.3188,2.0866,29.55,54,44,5.59,NE,2023-10-03 23:32:36
313,Esim,4.8699,-2.2405,25.01,89,80,3.37,GH,2023-10-03 23:32:36
314,Cabo San Lucas,22.8909,-109.9124,31.19,66,40,5.66,MX,2023-10-03 23:31:41
315,Enewetak,11.3474,162.3373,29.33,76,59,7.95,MH,2023-10-03 23:32:36
316,Toro,4.6117,-76.0814,23.38,96,99,1.59,CO,2023-10-03 23:32:37
317,Mejit,10.2753,170.8646,28.44,79,23,7.65,MH,2023-10-03 23:32:37
318,Port Sudan,19.6175,37.2164,28.22,79,2,3.01,SD,2023-10-03 23:32:37
319,Hilo,19.7297,-155.09,27.79,74,0,6.17,US,2023-10-03 23:27:40
320,Ibresi,55.2961,47.0394,8.53,86,77,2.76,RU,2023-10-03 23:32:37
321,Daru,-9.0763,143.2092,27.34,72,80,4.39,PG,2023-10-03 23:32:37
322,Usogorsk,63.4106,48.6872,6.48,69,100,5.26,RU,2023-10-03 23:32:37
323,Vila do Maio,15.1333,-23.2167,26.44,77,54,0.56,CV,2023-10-03 23:32:37
324,Hamilton,39.1834,-84.5333,26.1,56,0,2.57,US,2023-10-03 23:25:29
325,Kayangel,8.0823,134.7173,25.63,82,100,3.09,PW,2023-10-03 23:32:37
326,Ersekë,40.3378,20.6789,11.54,67,0,1.11,AL,2023-10-03 23:32:38
327,Guerrero Negro,27.9769,-114.0611,21.93,64,54,5.58,MX,2023-10-03 23:32:38
328,Acapulco de Juárez,16.8634,-99.8901,30.9,70,100,3.6,MX,2023-10-03 23:28:28
329,Mount Gambier,-37.8333,140.7667,12.02,68,55,2.51,AU,2023-10-03 23:32:38
330,Chake Chake,-5.2459,39.7666,25.24,78,95,4.68,TZ,2023-10-03 23:32:38
331,Oddur,4.1213,43.8894,23.23,83,99,5.04,SO,2023-10-03 23:32:38
332,Prince Rupert,54.3161,-130.3201,11.94,96,100,11.32,CA,2023-10-03 23:32:38
333,Tralee,52.2704,-9.7026,11.68,92,91,3.32,IE,2023-10-03 23:32:38
334,Saint Paul Harbor,57.79,-152.4072,10.73,37,0,5.14,US,2023-10-03 23:32:38
335,Tazovsky,67.4667,78.7,0.16,86,14,6.18,RU,2023-10-03 23:24:51
336,Suntar,62.1444,117.6319,-2.71,81,44,2.24,RU,2023-10-03 23:32:38
337,Coahuayana de Hidalgo,18.7,-103.6583,28.33,81,100,1.01,MX,2023-10-03 23:32:38
338,Caraúbas,-5.7925,-37.5567,26.22,57,27,7.07,BR,2023-10-03 23:32:39
339,Lhasa,29.65,91.1,11.72,61,76,1.47,CN,2023-10-03 23:32:39
340,Peace River,56.2501,-117.286,16.17,41,75,5.66,CA,2023-10-03 23:32:39
341,Lompoc,34.6391,-120.4579,23.22,56,20,4.63,US,2023-10-03 23:32:39
342,Saint-Philippe,-21.3585,55.7679,20.77,89,98,6.55,RE,2023-10-03 23:32:39
343,Vershino-Darasunskiy,52.35,115.5167,-1.81,57,7,1.85,RU,2023-10-03 23:32:39
344,Tahe,52.3333,124.7333,1.59,75,100,5.16,CN,2023-10-03 23:32:39
345,Okhotsk,59.3833,143.3,6.74,59,99,1.4,RU,2023-10-03 23:32:39
346,Tāybād,34.74,60.7756,19.86,22,36,1.1,IR,2023-10-03 23:32:14
347,Cambria,35.5641,-121.0808,29.27,55,15,4.17,US,2023-10-03 23:32:19
348,Lake Havasu City,34.4839,-114.3224,30.35,19,0,4.63,US,2023-10-03 23:32:40
349,Youhao,47.8667,128.8333,8.41,94,100,4.18,CN,2023-10-03 23:32:40
350,Albina,5.5,-54.05,26.93,78,35,2.16,SR,2023-10-03 23:32:40
351,Grajaú,-5.8194,-46.1386,30.07,39,44,1.97,BR,2023-10-03 23:32:40
352,Dokuchayevsk,47.7477,37.6738,11.88,56,2,1.48,UA,2023-10-03 23:32:40
353,Nova Viçosa,-17.8919,-39.3719,24.1,85,98,5.67,BR,2023-10-03 23:32:40
354,Dryden,49.7833,-92.7503,24.16,64,100,14.92,CA,2023-10-03 23:32:40
355,Susuman,62.7833,148.1667,-1.12,70,60,1.79,RU,2023-10-03 23:32:40
356,Labrador City,52.9463,-66.9114,4.95,65,75,3.09,CA,2023-10-03 23:32:41
357,Kavaratti,10.5669,72.642,27.0,77,90,2.52,IN,2023-10-03 23:32:41
358,Carlsbad,33.1581,-117.3506,24.22,71,0,5.14,US,2023-10-03 23:30:24
359,Ed Dueim,14.0012,32.3116,32.69,40,44,4.23,SD,2023-10-03 23:32:41
360,General Pico,-35.6566,-63.7568,12.14,92,100,2.53,AR,2023-10-03 23:32:41
361,Wainwright,52.839,-110.8572,15.06,35,4,5.69,CA,2023-10-03 23:29:11
362,Kourou,5.1552,-52.6478,28.03,83,80,3.75,GF,2023-10-03 23:30:07
363,River Cess,5.46,-9.5828,25.26,86,91,3.33,LR,2023-10-03 23:32:41
364,Pangody,65.85,74.4859,0.09,82,58,3.37,RU,2023-10-03 23:32:41
365,Barreiras,-12.1528,-44.99,30.67,26,79,1.19,BR,2023-10-03 23:32:41
366,Revda,56.801,59.9303,9.72,93,99,3.27,RU,2023-10-03 23:32:41
367,Dok Kham Tai,19.1624,99.9934,23.2,96,16,0.27,TH,2023-10-03 23:32:42
368,Emerald,-23.5333,148.1667,24.63,58,31,6.55,AU,2023-10-03 23:32:42
369,Urangan,-25.3,152.9,23.15,72,26,6.24,AU,2023-10-03 23:32:42
370,Baruun-Urt,46.6806,113.2792,2.71,64,11,4.58,MN,2023-10-03 23:32:42
371,Bonadelle Ranchos-Madera Ranchos,36.9847,-119.8746,28.27,27,1,0.81,US,2023-10-03 23:32:42
372,Waspán,14.7419,-83.9717,25.44,94,60,1.87,NI,2023-10-03 23:32:42
373,Helena Valley West Central,46.6629,-112.0604,12.95,64,96,3.58,US,2023-10-03 23:32:42
374,Oranjestad,12.524,-70.027,30.51,83,20,4.12,AW,2023-10-03 23:32:42
375,Lázaro Cárdenas,17.9583,-102.2,28.85,75,85,2.33,MX,2023-10-03 23:32:42
376,High Rock,26.6208,-78.2833,27.01,71,1,5.39,BS,2023-10-03 23:32:43
377,Bikin,46.8161,134.26,10.91,89,100,2.77,RU,2023-10-03 23:32:43
378,Kingston,17.997,-76.7936,27.45,85,20,2.06,JM,2023-10-03 23:24:26
379,Cologne,50.9333,6.95,12.95,78,0,3.6,DE,2023-10-03 23:32:43
380,Schuyler,42.4167,-76.883,21.36,82,1,0.45,US,2023-10-03 23:32:43
381,Ibarreta,-25.2144,-59.8585,26.22,73,82,3.16,AR,2023-10-03 23:32:43
382,Tanjung Pandan,-2.75,107.65,26.8,76,69,4.45,ID,2023-10-03 23:32:43
383,Katsuura,35.1333,140.3,21.43,71,100,4.32,JP,2023-10-03 23:32:43
384,As Sulayyil,20.4607,45.5779,26.14,19,0,2.09,SA,2023-10-03 23:32:43
385,East London,-33.0153,27.9116,18.18,78,29,2.45,ZA,2023-10-03 23:32:43
386,Pocatello,42.8713,-112.4455,10.8,84,100,6.69,US,2023-10-03 23:32:44
387,Bangil,-7.5994,112.8186,23.99,63,79,0.64,ID,2023-10-03 23:32:44
388,Sanming,26.2486,117.6186,25.78,86,19,1.27,CN,2023-10-03 23:32:44
389,Killarney,52.05,-9.5167,10.64,95,89,2.79,IE,2023-10-03 23:32:44
390,Dudinka,69.4058,86.1778,-0.74,86,39,8.49,RU,2023-10-03 23:32:44
391,Nishinoomote,30.7333,131.0,24.33,89,98,8.46,JP,2023-10-03 23:32:44
392,Zhangaözen,43.3,52.8,19.0,33,100,5.68,KZ,2023-10-03 23:32:44
393,Novoorsk,51.381,58.9813,12.14,60,99,3.53,RU,2023-10-03 23:32:44
394,Charters Towers,-20.1,146.2667,27.06,50,82,5.28,AU,2023-10-03 23:32:45
395,Bel Ombre,-4.6167,55.4167,26.91,78,40,5.14,SC,2023-10-03 23:32:45
396,Queenstown,-31.8976,26.8753,14.5,80,1,1.47,ZA,2023-10-03 23:32:45
397,Meadow Lakes,61.6247,-149.6011,7.0,49,0,2.06,US,2023-10-03 23:32:45
398,Quellón,-43.1167,-73.6167,7.87,84,82,0.61,CL,2023-10-03 23:32:44
399,Vanimo,-2.6741,141.3028,27.42,81,93,1.36,PG,2023-10-03 23:32:45
400,Port Blair,11.6667,92.75,25.02,94,75,1.03,IN,2023-10-03 23:32:45
401,Huron,41.1501,-82.5499,23.08,71,0,1.65,US,2023-10-03 23:32:45
402,Carauari,-4.8828,-66.8958,31.78,37,64,0.69,BR,2023-10-03 23:32:45
403,Kaa-Khem,51.6833,94.7333,4.11,53,1,1.66,RU,2023-10-03 23:32:45
404,Arzgir,45.3728,44.2206,13.74,84,45,1.62,RU,2023-10-03 23:32:46
405,Sabha,27.0377,14.4283,23.28,38,0,5.28,LY,2023-10-03 23:32:46
406,Malpica,43.3228,-8.8105,17.04,66,20,6.35,ES,2023-10-03 23:32:46
407,Gaimán,-43.2897,-65.4929,11.85,43,2,3.75,AR,2023-10-03 23:32:46
408,Borogontsy,62.6683,131.1683,1.27,92,100,3.13,RU,2023-10-03 23:32:46
409,Ginir,7.1333,40.7,14.77,78,22,2.2,ET,2023-10-03 23:32:46
410,Sandnessjøen,66.0217,12.6316,6.29,89,100,2.38,NO,2023-10-03 23:32:46
411,Suva,-18.1416,178.4415,25.71,65,75,5.66,FJ,2023-10-03 23:32:46
412,Langenzersdorf,48.3,16.35,19.89,61,87,4.02,AT,2023-10-03 23:32:47
413,Wanparti,16.3667,78.0667,23.47,70,74,2.2,IN,2023-10-03 23:32:47
414,Bude,50.8243,-4.5413,14.32,85,60,4.02,GB,2023-10-03 23:32:47
415,Rāmban,33.25,75.25,16.38,57,0,3.31,IN,2023-10-03 23:32:47
416,Anse La Raye,13.9333,-61.0333,27.34,88,20,0.0,LC,2023-10-03 23:32:47
417,Berrechid,33.2655,-7.5875,21.83,78,0,2.06,MA,2023-10-03 23:32:47
418,Dickson,36.077,-87.3878,23.4,69,0,0.0,US,2023-10-03 23:30:49
419,Arawa,-6.2132,155.5367,30.11,74,98,1.26,PG,2023-10-03 23:32:47
420,Ostrogozhsk,50.8664,39.0756,8.64,68,25,1.9,RU,2023-10-03 23:32:47
421,Champerico,14.3,-91.9167,26.3,77,95,3.45,GT,2023-10-03 23:32:47
422,Kalabo,-14.97,22.6814,23.77,28,97,5.43,ZM,2023-10-03 23:32:47
423,Horta,38.5333,-28.6333,21.12,93,91,3.13,PT,2023-10-03 23:32:48
424,Masterton,-40.9597,175.6575,11.6,45,2,2.08,NZ,2023-10-03 23:32:48
425,Kralendijk,12.15,-68.2667,30.99,79,0,6.17,BQ,2023-10-03 23:32:48
426,Lubuklinggau,-3.3,102.8667,24.68,74,95,0.12,ID,2023-10-03 23:32:48
427,Manta,-0.95,-80.7333,25.88,65,40,6.17,EC,2023-10-03 23:32:48
428,Lagoa,39.05,-27.9833,20.85,84,59,3.0,PT,2023-10-03 23:32:48
429,Seybaplaya,19.65,-90.6667,30.7,77,28,6.09,MX,2023-10-03 23:32:48
430,Puerto San José,13.9256,-90.8244,28.04,81,95,3.1,GT,2023-10-03 23:32:48
431,Lavaca,28.615,-96.6261,31.02,72,0,5.14,US,2023-10-03 23:32:48
432,Solnechnyy,50.7214,136.6319,6.13,84,87,1.19,RU,2023-10-03 23:32:49
433,Port Lincoln,-34.7333,135.8667,12.87,51,49,8.71,AU,2023-10-03 23:32:49
434,Omurtag,43.1,26.4167,9.77,72,5,1.99,BG,2023-10-03 23:32:49
435,Qaqortoq,60.7167,-46.0333,2.57,91,99,0.58,GL,2023-10-03 23:32:49
436,Lā‘ie,21.6477,-157.9253,29.0,64,11,0.89,US,2023-10-03 23:32:49
437,Ribeira Brava,32.65,-17.0667,23.96,61,100,2.52,PT,2023-10-03 23:32:49
438,Hithadhoo,-0.6,73.0833,27.42,80,71,5.47,MV,2023-10-03 23:32:49
439,Jasper,37.2001,-94.3502,25.54,53,0,4.12,US,2023-10-03 23:27:59
440,La Reforma,18.1,-91.0167,29.27,68,95,3.36,MX,2023-10-03 23:32:49
441,Gyangze,28.95,89.6333,5.39,62,58,1.29,CN,2023-10-03 23:32:49
442,Rewāri,28.1833,76.6167,23.87,26,0,1.81,IN,2023-10-03 23:32:50
443,Papao,-17.75,-149.55,28.82,83,9,10.03,PF,2023-10-03 23:32:50
444,San Carlos,9.6612,-68.5827,24.16,96,100,1.42,VE,2023-10-03 23:32:50
445,Teguise,29.0605,-13.564,24.12,65,0,7.72,ES,2023-10-03 23:32:50
446,Glendive,47.1053,-104.7125,12.67,94,100,4.63,US,2023-10-03 23:30:35
447,Constitución,-35.3333,-72.4167,9.66,86,7,4.52,CL,2023-10-03 23:32:50
448,Sinan,34.8262,126.1086,15.06,67,89,3.69,KR,2023-10-03 23:32:50
449,Crane,31.3974,-102.3501,21.56,65,43,8.7,US,2023-10-03 23:32:50
450,Assaré,-6.8744,-39.875,26.5,33,14,1.54,BR,2023-10-03 23:32:50
451,Collie,-33.3667,116.15,12.55,76,3,0.36,AU,2023-10-03 23:32:51
452,Wynyard,-41.0,145.7167,14.43,56,46,2.64,AU,2023-10-03 23:32:51
453,Catherinas Lust,6.4,-57.6,28.08,82,67,5.88,GY,2023-10-03 23:32:51
454,Pascagoula,30.3658,-88.5561,26.62,67,0,3.09,US,2023-10-03 23:32:51
455,Kroya,-7.6331,109.2461,25.11,82,77,1.92,ID,2023-10-03 23:32:51
456,Ulladulla,-35.35,150.4667,24.32,54,100,2.46,AU,2023-10-03 23:28:54
457,Porbandar,21.6422,69.6093,25.61,73,11,2.36,IN,2023-10-03 23:32:51
458,Arteche,12.2645,125.4048,29.27,72,91,0.92,PH,2023-10-03 23:32:51
459,Sélibaby,15.159,-12.1829,32.85,34,54,3.73,MR,2023-10-03 23:32:51
460,New Norfolk,-42.7826,147.0587,12.09,74,99,1.39,AU,2023-10-03 23:32:51
461,Shimoda,34.6667,138.95,18.95,92,100,7.32,JP,2023-10-03 23:32:52
462,Dickinson,29.4608,-95.0513,25.88,89,75,5.14,US,2023-10-03 23:32:52
463,Tainan City,22.9908,120.2133,25.98,89,75,6.69,TW,2023-10-03 23:32:52
464,Olovyannaya,50.95,115.5667,1.33,59,0,5.63,RU,2023-10-03 23:32:52
465,Saint-Pierre,-21.3393,55.4781,20.82,94,75,5.66,RE,2023-10-03 23:32:52
466,Kikwit,-5.041,18.8162,22.96,90,50,0.4,CD,2023-10-03 23:32:52
467,Jūnāgarh,19.8667,82.9333,23.49,93,100,1.72,IN,2023-10-03 23:32:52
468,Happy Valley-Goose Bay,53.3168,-60.3315,7.17,45,75,3.6,CA,2023-10-03 23:32:52
469,Conde,-7.2597,-34.9075,25.7,78,0,2.57,BR,2023-10-03 23:32:52
470,Ati,13.2154,18.3353,26.86,66,85,7.57,TD,2023-10-03 23:32:52
471,Knyaze-Volkonskoye,48.4642,135.4567,8.81,95,100,1.79,RU,2023-10-03 23:32:53
472,Darwin,-12.4611,130.8418,27.99,69,20,2.57,AU,2023-10-03 23:28:00
473,Porto-Vecchio,41.591,9.2795,12.81,88,0,1.54,FR,2023-10-03 23:32:53
474,Palembang,-2.9167,104.7458,25.05,83,40,1.54,ID,2023-10-03 23:32:53
475,Tamanghasset,22.785,5.5228,22.95,38,40,2.06,DZ,2023-10-03 23:32:53
476,Kuching,1.55,110.3333,26.44,90,20,1.03,MY,2023-10-03 23:32:53
477,Moussoro,13.6408,16.4901,31.83,24,54,5.24,TD,2023-10-03 23:32:53
478,Ankang,32.68,109.0172,17.64,97,100,1.19,CN,2023-10-03 23:32:53
479,Tidjikja,18.5564,-11.4271,33.36,19,65,3.65,MR,2023-10-03 23:32:53
480,Nemuro,43.3236,145.575,14.66,69,100,1.73,JP,2023-10-03 23:32:53
481,Malango,-2.9627,119.9001,23.47,81,62,0.56,ID,2023-10-03 23:32:53
482,Ulsteinvik,62.3432,5.8487,10.66,92,90,5.81,NO,2023-10-03 23:32:54
483,Yatou,37.15,122.3833,20.49,65,35,3.33,CN,2023-10-03 23:32:54
484,Leeton,-34.5667,146.4,11.16,97,100,0.13,AU,2023-10-03 23:30:22
485,Rio Branco,-9.9747,-67.81,33.34,52,0,2.06,BR,2023-10-03 23:30:07
486,Mukalla,14.5425,49.1242,26.8,70,0,2.07,YE,2023-10-03 23:32:54
487,Paradip,20.3167,86.6167,25.82,90,100,3.26,IN,2023-10-03 23:32:54
488,Nahrin,36.0649,69.1334,16.91,25,0,2.94,AF,2023-10-03 23:32:54
489,Kousséri,12.0769,15.0306,28.63,47,66,2.26,CM,2023-10-03 23:32:54
490,Pemangkat,1.1667,108.9667,26.35,79,77,3.16,ID,2023-10-03 23:32:54
491,Chimoré,-16.9833,-65.1333,30.29,52,83,1.04,BO,2023-10-03 23:32:55
492,La Passe,45.5549,-0.8967,14.13,81,47,3.53,FR,2023-10-03 23:32:55
493,Fort Bragg,35.139,-79.006,23.49,69,0,1.54,US,2023-10-03 23:32:55
494,Slave Lake,55.2834,-114.769,12.99,67,0,2.06,CA,2023-10-03 23:32:55
495,Selfoss,63.9331,-20.9971,6.14,92,100,3.62,IS,2023-10-03 23:32:55
496,Diamondhead,30.3946,-89.3639,27.61,61,0,3.6,US,2023-10-03 23:32:55
497,Sittwe,20.15,92.9,25.32,93,53,4.73,MM,2023-10-03 23:32:55
498,Kuala Tungkal,-0.8167,103.4667,25.31,90,100,3.27,ID,2023-10-03 23:32:55
499,Beipiao,41.7919,120.7792,14.26,20,20,6.9,CN,2023-10-03 23:32:55
500,Worland,44.0169,-107.9554,10.03,83,100,4.12,US,2023-10-03 23:32:56
501,Saint-François,46.4154,3.9054,11.69,94,75,0.0,FR,2023-10-03 23:32:56
502,Sharjah city,25.3573,55.4033,27.16,83,0,2.06,AE,2023-10-03 23:32:56
503,Huesca,42.1362,-0.4087,16.7,84,40,0.0,ES,2023-10-03 23:32:56
504,Zapala,-38.8992,-70.0544,10.17,41,69,5.23,AR,2023-10-03 23:32:56
505,Ambovombe,-25.1667,46.0833,16.05,69,0,1.88,MG,2023-10-03 23:32:56
506,Ulety,51.3572,112.4849,0.77,78,11,4.07,RU,2023-10-03 23:32:56
507,Cabedelo,-6.9811,-34.8339,26.37,67,90,5.38,BR,2023-10-03 23:32:56
508,Blenheim,-41.516,173.9528,19.73,41,44,1.79,NZ,2023-10-03 23:32:56
509,Mandalgovi,45.7625,106.2708,3.46,68,0,0.96,MN,2023-10-03 23:32:57
510,Trstenik,43.6169,21.0025,9.23,67,0,1.44,RS,2023-10-03 23:32:57
511,El Granada,37.5027,-122.4694,21.98,65,20,6.17,US,2023-10-03 23:32:57
512,Panarukan,-7.7018,113.9184,28.21,58,59,0.51,ID,2023-10-03 23:32:57
513,Montmagny,48.9734,2.3469,12.86,81,0,2.57,FR,2023-10-03 23:32:57
514,Ust'-Barguzin,53.45,108.9833,3.38,73,96,2.68,RU,2023-10-03 23:32:57
515,Xiantao,30.3833,113.4,19.48,85,100,2.22,CN,2023-10-03 23:32:57
516,Levuka,50.1834,-105.4011,13.85,62,75,7.72,CA,2023-10-03 23:32:57
517,Port Moresby,-9.4431,147.1797,25.68,89,100,7.72,PG,2023-10-03 23:32:07
518,Sheridan,44.8333,-106.9173,9.47,85,100,10.29,US,2023-10-03 23:32:57
519,Chanute,37.6792,-95.4572,26.84,47,0,7.2,US,2023-10-03 23:32:58
520,Mahina,-17.5065,-149.489,28.87,70,20,4.12,PF,2023-10-03 23:32:58
521,Ayoun El Atrous,16.6614,-9.6149,34.77,26,56,3.14,MR,2023-10-03 23:32:58
522,Moose Jaw,50.4001,-105.5344,14.14,62,75,7.72,CA,2023-10-03 23:32:58
523,Ujae,8.9322,165.7642,28.83,78,99,7.89,MH,2023-10-03 23:32:58
524,Mouila,-1.8685,11.0559,24.27,94,77,1.08,GA,2023-10-03 23:32:58
525,San Fernando,15.0286,120.6898,26.85,81,99,2.12,PH,2023-10-03 23:32:58
526,Muisne,0.6,-80.0333,24.27,78,97,4.68,EC,2023-10-03 23:32:58
527,Bodaybo,57.8506,114.1933,1.94,97,100,2.24,RU,2023-10-03 23:31:29
528,Abay,49.6311,72.8539,1.21,65,6,2.34,KZ,2023-10-03 23:32:58
529,Mezhdurechenskiy,59.6,65.9333,12.95,75,100,2.68,RU,2023-10-03 23:32:58
530,Nogliki,51.8333,143.1667,7.41,86,10,7.6,RU,2023-10-03 23:32:59
531,Illizi,26.4833,8.4667,26.89,34,12,6.81,DZ,2023-10-03 23:32:59
532,Bengkulu,-3.8004,102.2655,23.57,89,100,1.58,ID,2023-10-03 23:32:59
533,Puerto Madero,14.7208,-92.4215,28.11,100,75,0.0,MX,2023-10-03 23:32:59
534,Zabul Province,32.25,67.25,13.5,23,0,1.86,AF,2023-10-03 23:32:59
535,Puerto Ayacucho,5.6639,-67.6236,26.29,86,96,1.26,VE,2023-10-03 23:32:59
536,Tacna,-18.0056,-70.2483,16.11,77,100,4.63,PE,2023-10-03 23:32:59
537,Priob’ye,62.5206,65.5964,7.2,91,100,2.34,RU,2023-10-03 23:32:59
538,La Santisima Trinidad,-14.8333,-64.9,34.99,46,64,2.57,BO,2023-10-03 23:32:59
539,Marshalltown,42.0494,-92.908,26.37,47,0,6.17,US,2023-10-03 23:33:00
540,Santana,-0.0583,-51.1817,30.1,66,20,5.14,BR,2023-10-03 23:33:00
541,Katabu,-4.9333,122.5167,28.9,63,38,1.88,ID,2023-10-03 23:33:00
542,Cudillero,43.5622,-6.1459,18.28,88,75,4.12,ES,2023-10-03 23:33:00
543,Safotu,-13.4513,-172.4018,27.54,85,62,7.46,WS,2023-10-03 23:33:00
544,Santa Eulària des Riu,38.9846,1.5341,22.76,87,40,2.06,ES,2023-10-03 23:33:00
545,Pyapon,16.2833,95.6833,24.9,95,100,2.22,MM,2023-10-03 23:33:00
546,Malé,4.1748,73.5089,26.85,80,100,4.82,MV,2023-10-03 23:33:00
547,Al Jawf,29.5,38.75,22.92,46,82,3.83,SA,2023-10-03 23:33:00
548,Āsasa,7.1,39.2,12.4,89,99,1.06,ET,2023-10-03 23:33:00
549,Moratalla,38.1893,-1.8918,19.24,80,100,1.61,ES,2023-10-03 23:33:01
550,Shalkar,47.8288,59.6258,13.49,49,100,3.03,KZ,2023-10-03 23:33:01
551,Nālūt,30.3333,10.85,20.39,48,0,5.42,LY,2023-10-03 23:33:01
552,Nicoya,10.1483,-85.452,24.94,92,100,1.87,CR,2023-10-03 23:33:01
553,Lüderitz,-26.6481,15.1594,20.14,49,20,2.82,NA,2023-10-03 23:33:01
554,Menongue,-14.6585,17.691,18.47,30,73,1.9,AO,2023-10-03 23:33:01
555,Puri,19.8,85.85,26.29,82,99,2.14,IN,2023-10-03 23:33:01
556,Arnö,60.1167,18.6333,11.55,93,100,4.47,SE,2023-10-03 23:33:01
557,Williams Lake,52.1415,-122.1445,13.92,75,100,2.57,CA,2023-10-03 23:33:01
558,Chipinge,-20.1883,32.6236,12.87,62,0,1.43,ZW,2023-10-03 23:33:02
559,Salekhard,66.53,66.6019,2.25,73,100,4.47,RU,2023-10-03 23:33:02
560,Sollefteå,63.1667,17.2667,6.92,98,81,0.99,SE,2023-10-03 23:33:02
561,Kirakira,-10.4544,161.9205,24.44,96,100,2.89,SB,2023-10-03 23:33:02
562,Santa Maria,-29.6842,-53.8069,18.61,88,40,4.12,BR,2023-10-03 23:33:02
563,Usinsk,65.9939,57.5281,1.71,85,97,4.47,RU,2023-10-03 23:33:02
564,Çifteler,39.3831,31.0392,11.61,77,0,1.74,TR,2023-10-03 23:33:02
565,Alpena,45.0617,-83.4327,23.51,71,0,3.09,US,2023-10-03 23:33:03
566,Piton Saint-Leu,-21.2196,55.3151,19.08,94,75,5.66,RE,2023-10-03 23:33:03
567,Grand Rapids,42.9634,-85.6681,25.01,62,20,2.57,US,2023-10-03 23:28:32
568,Katsuren-haebaru,26.3369,127.8719,28.3,60,75,6.17,JP,2023-10-03 23:33:03
569,Ivdel',60.6911,60.4206,9.55,91,74,1.31,RU,2023-10-03 23:33:03
570,Ceeldheer,3.8488,47.1806,25.58,91,55,5.16,SO,2023-10-03 23:30:01
571,Calama,-22.4667,-68.9333,21.27,21,0,5.66,CL,2023-10-03 23:33:03
572,Porto-Novo,6.4965,2.6036,24.87,91,100,1.94,BJ,2023-10-03 23:33:03
573,Broome,42.2506,-75.833,20.21,88,0,1.24,US,2023-10-03 23:33:03
574,Touros,-5.1989,-35.4608,25.72,71,42,7.01,BR,2023-10-03 23:33:03
575,Arica,-18.475,-70.3042,18.13,82,100,4.12,CL,2023-10-03 23:33:03
576,Ballina,-28.8667,153.5667,23.21,65,80,8.47,AU,2023-10-03 23:33:04
577,Bundibugyo,0.7414,30.0417,19.98,69,100,1.07,UG,2023-10-03 23:33:04
578,Sotkamo,64.1333,28.4167,6.01,88,100,1.3,FI,2023-10-03 23:33:04
579,Osa,57.2829,55.4567,6.84,94,12,1.72,RU,2023-10-03 23:33:04
580,El Bauga,18.262,33.9081,31.1,25,0,4.09,SD,2023-10-03 23:33:04
581,Novoishimskiy,53.1981,66.7694,8.63,67,95,3.99,KZ,2023-10-03 23:33:04
582,Paiján,-7.7333,-79.3022,19.57,82,54,4.36,PE,2023-10-03 23:33:04
583,Barleben,52.2019,11.6177,12.1,90,20,6.69,DE,2023-10-03 23:33:04
584,Vinh Long,10.25,105.9667,23.99,90,41,2.31,VN,2023-10-03 23:33:04
585,Madang,-5.2246,145.7966,28.24,79,99,2.08,PG,2023-10-03 23:33:05
586,Fort McMurray,56.7268,-111.381,15.73,51,75,3.09,CA,2023-10-03 23:30:20
587,Gorontalo,0.5412,123.0595,29.46,62,20,1.08,ID,2023-10-03 23:33:05
588,Dawei,14.0833,98.2,24.99,94,99,1.11,MM,2023-10-03 23:33:05
589,Jaipur,26.9167,75.8167,23.62,50,0,1.03,IN,2023-10-03 23:33:05
590,Smithers,54.7804,-127.1743,10.18,87,100,1.03,CA,2023-10-03 23:33:05
591,Shizuishan,39.2333,106.7694,14.68,32,100,4.87,CN,2023-10-03 23:33:05
592,Milazzo,38.2212,15.2383,20.54,70,6,1.34,IT,2023-10-03 23:33:05
593,São José da Coroa Grande,-8.8978,-35.1478,25.08,69,20,4.54,BR,2023-10-03 23:33:05
594,Carleton Place,45.1334,-76.1494,23.12,79,15,0.45,CA,2023-10-03 23:30:25
595,Kapaa,22.0752,-159.319,28.34,73,40,4.63,US,2023-10-03 23:31:47
596,Barroquinha,-3.0189,-41.1361,25.49,70,58,4.49,BR,2023-10-03 23:32:59
597,Damaturu,11.747,11.9608,28.44,35,63,3.53,NG,2023-10-03 23:33:06
598,Zhaotong,27.3167,103.7167,16.8,93,100,0.32,CN,2023-10-03 23:33:06
599,Obo,5.3998,26.4869,20.26,93,100,1.37,CF,2023-10-03 23:33:06
600,Murzuk,25.9155,13.9184,23.2,35,53,4.8,LY,2023-10-03 23:33:06
601,Undurkhaan,47.3194,110.6556,3.03,58,0,2.02,MN,2023-10-03 23:33:06
602,Cadale,2.7603,46.3222,26.18,87,38,4.76,SO,2023-10-03 23:33:06
603,Chonchi,-42.6128,-73.8092,10.62,91,79,0.63,CL,2023-10-03 23:32:57
604,Tharangambadi,11.0319,79.8528,26.63,86,75,7.44,IN,2023-10-03 23:33:07
605,Khasab,26.1799,56.2477,30.59,50,10,0.77,OM,2023-10-03 23:33:07
606,Asău,46.4333,26.4,10.51,62,1,2.99,RO,2023-10-03 23:33:07
607,Saint-Paul,-21.0096,55.2707,21.28,91,48,0.45,RE,2023-10-03 23:33:07
608,Weno,7.4515,151.8468,30.97,70,40,3.09,FM,2023-10-03 23:33:07
609,Rawson,-43.3002,-65.1023,10.95,55,10,3.22,AR,2023-10-03 23:33:07
610,Mount Isa,-20.7333,139.5,24.87,29,32,8.75,AU,2023-10-03 23:33:07
611,Aznā,33.6095,48.9307,15.99,56,36,1.98,IR,2023-10-03 23:33:08
612,Cannonvale,-20.2833,148.7,24.66,72,37,2.59,AU,2023-10-03 23:33:08
613,Sitia,35.2,26.0986,22.21,70,11,8.28,GR,2023-10-03 23:33:08
